[
  {
    "NAME": "Samoa Boat Ramp",
    "CITY": "Eureka",
    "ST": "CA",
    "LAT": 40.7597,
    "LNG": -124.1978
  },
  {
    "NAME": "Samoa Bridge Boat Ramp",
    "CITY": "Eureka",
    "ST": "CA",
    "LAT": 40.7731,
    "LNG": -124.2094
  },
  {
    "NAME": "Eureka Public Marina",
    "CITY": "Eureka",
    "ST": "CA",
    "LAT": 40.8021,
    "LNG": -124.1637
  },
  {
    "NAME": "Bonnie Gool Dock",
    "CITY": "Eureka",
    "ST": "CA",
    "LAT": 40.7989,
    "LNG": -124.1636
  },
  {
    "NAME": "South Humboldt Bay & Ocean Beach Access",
    "CITY": "Arcata",
    "ST": "CA",
    "LAT": 40.7167,
    "LNG": -124.2167
  },
  {
    "NAME": "Humboldt Lagoons Boat Ramp",
    "CITY": "Trinidad",
    "ST": "CA",
    "LAT": 41.215,
    "LNG": -124.0833
  },
  {
    "NAME": "Clam Beach Boat Ramp",
    "CITY": "McKinleyville",
    "ST": "CA",
    "LAT": 41.0514,
    "LNG": -124.115
  },
  {
    "NAME": "Fields Landing Boat Ramp",
    "CITY": "Fields Landing",
    "ST": "CA",
    "LAT": 40.7242,
    "LNG": -124.2389
  },
  {
    "NAME": "Pedrazzini Boat Ramp",
    "CITY": "Loleta",
    "ST": "CA",
    "LAT": 40.6144,
    "LNG": -124.2167
  },
  {
    "NAME": "Trinidad Harbor Boat Ramp",
    "CITY": "Trinidad",
    "ST": "CA",
    "LAT": 41.0592,
    "LNG": -124.1458
  },
  {
    "NAME": "Moonstone Beach Boat Ramp",
    "CITY": "Westhaven",
    "ST": "CA",
    "LAT": 41.0433,
    "LNG": -124.0989
  },
  {
    "NAME": "Shelter Cove Boat Ramp",
    "CITY": "Shelter Cove",
    "ST": "CA",
    "LAT": 40.0192,
    "LNG": -124.07
  },
  {
    "NAME": "Westport Boat Ramp",
    "CITY": "Westport",
    "ST": "CA",
    "LAT": 39.6825,
    "LNG": -123.7983
  },
  {
    "NAME": "Elk Cove Boat Ramp",
    "CITY": "Elk",
    "ST": "CA",
    "LAT": 39.1,
    "LNG": -123.7333
  },
  {
    "NAME": "Point Arena Boat Ramp",
    "CITY": "Point Arena",
    "ST": "CA",
    "LAT": 38.9092,
    "LNG": -123.6944
  },
  {
    "NAME": "Manchester Beach Boat Ramp",
    "CITY": "Manchester",
    "ST": "CA",
    "LAT": 38.9667,
    "LNG": -123.6833
  },
  {
    "NAME": "Anchor Bay Boat Ramp",
    "CITY": "Anchor Bay",
    "ST": "CA",
    "LAT": 38.8056,
    "LNG": -123.6378
  },
  {
    "NAME": "Gualala Boat Ramp",
    "CITY": "Gualala",
    "ST": "CA",
    "LAT": 38.7694,
    "LNG": -123.5267
  },
  {
    "NAME": "Sea Ranch Boat Ramp",
    "CITY": "Sea Ranch",
    "ST": "CA",
    "LAT": 38.7142,
    "LNG": -123.4556
  },
  {
    "NAME": "Fort Ross Boat Ramp",
    "CITY": "Fort Ross",
    "ST": "CA",
    "LAT": 38.5142,
    "LNG": -123.245
  },
  {
    "NAME": "Bodega Bay Boat Ramp",
    "CITY": "Bodega Bay",
    "ST": "CA",
    "LAT": 38.3324,
    "LNG": -123.0481
  },
  {
    "NAME": "Tomales Bay Boat Ramp",
    "CITY": "Inverness",
    "ST": "CA",
    "LAT": 38.1,
    "LNG": -122.85
  },
  {
    "NAME": "Point Reyes Boat Ramp",
    "CITY": "Point Reyes Station",
    "ST": "CA",
    "LAT": 38.0667,
    "LNG": -122.8167
  },
  {
    "NAME": "Stinson Beach Boat Ramp",
    "CITY": "Stinson Beach",
    "ST": "CA",
    "LAT": 37.9,
    "LNG": -122.65
  },
  {
    "NAME": "Muir Beach Boat Ramp",
    "CITY": "Muir Beach",
    "ST": "CA",
    "LAT": 37.8667,
    "LNG": -122.5833
  },
  {
    "NAME": "Sausalito Boat Ramp",
    "CITY": "Sausalito",
    "ST": "CA",
    "LAT": 37.8592,
    "LNG": -122.4847
  },
  {
    "NAME": "San Francisco Marina Boat Ramp",
    "CITY": "San Francisco",
    "ST": "CA",
    "LAT": 37.805,
    "LNG": -122.4267
  },
  {
    "NAME": "Candlestick Point Boat Ramp",
    "CITY": "San Francisco",
    "ST": "CA",
    "LAT": 37.7175,
    "LNG": -122.3833
  },
  {
    "NAME": "Half Moon Bay Boat Ramp",
    "CITY": "Half Moon Bay",
    "ST": "CA",
    "LAT": 37.4636,
    "LNG": -122.4286
  },
  {
    "NAME": "Pillar Point Harbor Boat Ramp",
    "CITY": "Princeton-by-the-Sea",
    "ST": "CA",
    "LAT": 37.5,
    "LNG": -122.4833
  },
  {
    "NAME": "El Granada Boat Ramp",
    "CITY": "El Granada",
    "ST": "CA",
    "LAT": 37.5036,
    "LNG": -122.4694
  },
  {
    "NAME": "Moss Beach Boat Ramp",
    "CITY": "Moss Beach",
    "ST": "CA",
    "LAT": 37.52,
    "LNG": -122.5125
  },
  {
    "NAME": "Montara Boat Ramp",
    "CITY": "Montara",
    "ST": "CA",
    "LAT": 37.54,
    "LNG": -122.5167
  },
  {
    "NAME": "Pacifica Pier Boat Ramp",
    "CITY": "Pacifica",
    "ST": "CA",
    "LAT": 37.6136,
    "LNG": -122.4889
  },
  {
    "NAME": "Linda Mar Beach Boat Ramp",
    "CITY": "Pacifica",
    "ST": "CA",
    "LAT": 37.59,
    "LNG": -122.49
  },
  {
    "NAME": "Sharp Park Boat Ramp",
    "CITY": "Pacifica",
    "ST": "CA",
    "LAT": 37.62,
    "LNG": -122.5
  },
  {
    "NAME": "Rockaway Beach Boat Ramp",
    "CITY": "Pacifica",
    "ST": "CA",
    "LAT": 37.63,
    "LNG": -122.505
  },
  {
    "NAME": "Spreckels Lake Boat Ramp",
    "CITY": "San Francisco",
    "ST": "CA",
    "LAT": 37.7717,
    "LNG": -122.51
  },
  {
    "NAME": "Crissy Field Boat Ramp",
    "CITY": "San Francisco",
    "ST": "CA",
    "LAT": 37.8017,
    "LNG": -122.4533
  },
  {
    "NAME": "Ocean Beach Boat Ramp",
    "CITY": "San Francisco",
    "ST": "CA",
    "LAT": 37.7692,
    "LNG": -122.5111
  },
  {
    "NAME": "Fort Baker Boat Ramp",
    "CITY": "Sausalito",
    "ST": "CA",
    "LAT": 37.84,
    "LNG": -122.47
  },
  {
    "NAME": "Horseshoe Bay Boat Ramp",
    "CITY": "Sausalito",
    "ST": "CA",
    "LAT": 37.8333,
    "LNG": -122.4833
  },
  {
    "NAME": "Mill Valley Boat Ramp",
    "CITY": "Mill Valley",
    "ST": "CA",
    "LAT": 37.9042,
    "LNG": -122.5456
  },
  {
    "NAME": "Tiburon Boat Ramp",
    "CITY": "Tiburon",
    "ST": "CA",
    "LAT": 37.8736,
    "LNG": -122.4567
  },
  {
    "NAME": "Belvedere Boat Ramp",
    "CITY": "Belvedere",
    "ST": "CA",
    "LAT": 37.8717,
    "LNG": -122.4633
  },
  {
    "NAME": "Angel Island Boat Ramp",
    "CITY": "Tiburon",
    "ST": "CA",
    "LAT": 37.8583,
    "LNG": -122.435
  },
  {
    "NAME": "Richmond Harbor Boat Ramp",
    "CITY": "Richmond",
    "ST": "CA",
    "LAT": 37.9183,
    "LNG": -122.3517
  },
  {
    "NAME": "Point Richmond Boat Ramp",
    "CITY": "Richmond",
    "ST": "CA",
    "LAT": 37.9233,
    "LNG": -122.3817
  },
  {
    "NAME": "Brickyard Cove Boat Ramp",
    "CITY": "Point Richmond",
    "ST": "CA",
    "LAT": 37.9192,
    "LNG": -122.3883
  },
  {
    "NAME": "Keller Beach Boat Ramp",
    "CITY": "El Cerrito",
    "ST": "CA",
    "LAT": 37.9192,
    "LNG": -122.32
  },
  {
    "NAME": "San Leandro Marina Boat Ramp",
    "CITY": "San Leandro",
    "ST": "CA",
    "LAT": 37.7,
    "LNG": -122.2
  },
  {
    "NAME": "Alameda Marina Boat Ramp",
    "CITY": "Alameda",
    "ST": "CA",
    "LAT": 37.7833,
    "LNG": -122.2667
  },
  {
    "NAME": "Oakland Marina Boat Ramp",
    "CITY": "Oakland",
    "ST": "CA",
    "LAT": 37.7983,
    "LNG": -122.2783
  },
  {
    "NAME": "Emeryville Marina Boat Ramp",
    "CITY": "Emeryville",
    "ST": "CA",
    "LAT": 37.8333,
    "LNG": -122.2917
  },
  {
    "NAME": "Berkeley Marina Boat Ramp",
    "CITY": "Berkeley",
    "ST": "CA",
    "LAT": 37.8667,
    "LNG": -122.3167
  },
  {
    "NAME": "Marina Bay Boat Ramp",
    "CITY": "Richmond",
    "ST": "CA",
    "LAT": 37.9167,
    "LNG": -122.3667
  },
  {
    "NAME": "San Rafael Boat Ramp",
    "CITY": "San Rafael",
    "ST": "CA",
    "LAT": 37.9733,
    "LNG": -122.5183
  },
  {
    "NAME": "Petaluma River Boat Ramp",
    "CITY": "Petaluma",
    "ST": "CA",
    "LAT": 38.2333,
    "LNG": -122.6167
  },
  {
    "NAME": "Novato Boat Ramp",
    "CITY": "Novato",
    "ST": "CA",
    "LAT": 38.1,
    "LNG": -122.5667
  },
  {
    "NAME": "Santa Rosa Boat Ramp",
    "CITY": "Santa Rosa",
    "ST": "CA",
    "LAT": 38.44,
    "LNG": -122.7142
  },
  {
    "NAME": "Sonoma Boat Ramp",
    "CITY": "Sonoma",
    "ST": "CA",
    "LAT": 38.2917,
    "LNG": -122.4583
  },
  {
    "NAME": "Napa River Boat Ramp",
    "CITY": "Napa",
    "ST": "CA",
    "LAT": 38.3,
    "LNG": -122.2833
  },
  {
    "NAME": "Vallejo Boat Ramp",
    "CITY": "Vallejo",
    "ST": "CA",
    "LAT": 38.1042,
    "LNG": -122.2567
  },
  {
    "NAME": "Martinez Boat Ramp",
    "CITY": "Martinez",
    "ST": "CA",
    "LAT": 38.0167,
    "LNG": -122.1333
  },
  {
    "NAME": "Benicia Boat Ramp",
    "CITY": "Benicia",
    "ST": "CA",
    "LAT": 38.05,
    "LNG": -122.15
  },
  {
    "NAME": "Crockett Boat Ramp",
    "CITY": "Crockett",
    "ST": "CA",
    "LAT": 38.05,
    "LNG": -122.2167
  },
  {
    "NAME": "Pinole Boat Ramp",
    "CITY": "Pinole",
    "ST": "CA",
    "LAT": 38,
    "LNG": -122.2833
  },
  {
    "NAME": "Hercules Boat Ramp",
    "CITY": "Hercules",
    "ST": "CA",
    "LAT": 38.0167,
    "LNG": -122.2667
  },
  {
    "NAME": "Rodeo Boat Ramp",
    "CITY": "Rodeo",
    "ST": "CA",
    "LAT": 38.0333,
    "LNG": -122.2667
  },
  {
    "NAME": "Port Costa Boat Ramp",
    "CITY": "Port Costa",
    "ST": "CA",
    "LAT": 38.05,
    "LNG": -122.1833
  },
  {
    "NAME": "",
    "CITY": "Ketchikan",
    "ST": "AK",
    "LAT": 55.3422,
    "LNG": -131.6462
  },
  {
    "NAME": "",
    "CITY": "Juneau",
    "ST": "AK",
    "LAT": 58.3019,
    "LNG": -134.4197
  },
  {
    "NAME": "",
    "CITY": "Anchorage",
    "ST": "AK",
    "LAT": 61.2181,
    "LNG": -149.9003
  },
  {
    "NAME": "",
    "CITY": "Homer",
    "ST": "AK",
    "LAT": 59.6425,
    "LNG": -151.5483
  },
  {
    "NAME": "",
    "CITY": "Kodiak",
    "ST": "AK",
    "LAT": 57.79,
    "LNG": -152.4072
  },
  {
    "NAME": "",
    "CITY": "Sitka",
    "ST": "AK",
    "LAT": 57.0531,
    "LNG": -135.33
  },
  {
    "NAME": "",
    "CITY": "Hilo",
    "ST": "HI",
    "LAT": 19.7297,
    "LNG": -155.09
  },
  {
    "NAME": "",
    "CITY": "Honolulu",
    "ST": "HI",
    "LAT": 21.3069,
    "LNG": -157.8583
  },
  {
    "NAME": "",
    "CITY": "Kahului",
    "ST": "HI",
    "LAT": 20.8906,
    "LNG": -156.4742
  },
  {
    "NAME": "",
    "CITY": "Lihue",
    "ST": "HI",
    "LAT": 21.9783,
    "LNG": -159.3711
  },
  {
    "NAME": "",
    "CITY": "Astoria",
    "ST": "OR",
    "LAT": 46.1879,
    "LNG": -123.8313
  },
  {
    "NAME": "",
    "CITY": "Cannon Beach",
    "ST": "OR",
    "LAT": 45.8918,
    "LNG": -123.9615
  },
  {
    "NAME": "",
    "CITY": "Newport",
    "ST": "OR",
    "LAT": 44.6368,
    "LNG": -124.0532
  },
  {
    "NAME": "",
    "CITY": "Florence",
    "ST": "OR",
    "LAT": 44.0121,
    "LNG": -124.0998
  },
  {
    "NAME": "",
    "CITY": "Coos Bay",
    "ST": "OR",
    "LAT": 43.3665,
    "LNG": -124.2179
  },
  {
    "NAME": "",
    "CITY": "Aberdeen",
    "ST": "WA",
    "LAT": 46.9754,
    "LNG": -123.8152
  },
  {
    "NAME": "",
    "CITY": "Ocean Shores",
    "ST": "WA",
    "LAT": 46.9734,
    "LNG": -124.156
  },
  {
    "NAME": "",
    "CITY": "Hoquiam",
    "ST": "WA",
    "LAT": 46.9809,
    "LNG": -123.9057
  },
  {
    "NAME": "",
    "CITY": "Long Beach",
    "ST": "WA",
    "LAT": 46.3523,
    "LNG": -124.0535
  },
  {
    "NAME": "",
    "CITY": "Westport",
    "ST": "WA",
    "LAT": 46.8893,
    "LNG": -124.1041
  },
  {
    "NAME": "",
    "CITY": "Ilwaco",
    "ST": "WA",
    "LAT": 46.3054,
    "LNG": -124.0432
  },
  {
    "NAME": "",
    "CITY": "Crescent City",
    "ST": "CA",
    "LAT": 41.7557,
    "LNG": -124.2037
  },
  {
    "NAME": "",
    "CITY": "Eureka",
    "ST": "CA",
    "LAT": 40.8021,
    "LNG": -124.1637
  },
  {
    "NAME": "",
    "CITY": "Arcata",
    "ST": "CA",
    "LAT": 40.8665,
    "LNG": -124.0829
  },
  {
    "NAME": "",
    "CITY": "Fort Bragg",
    "ST": "CA",
    "LAT": 39.4457,
    "LNG": -123.8053
  },
  {
    "NAME": "",
    "CITY": "Mendocino",
    "ST": "CA",
    "LAT": 39.3074,
    "LNG": -123.7997
  },
  {
    "NAME": "",
    "CITY": "Bodega Bay",
    "ST": "CA",
    "LAT": 38.3324,
    "LNG": -123.0481
  },
  {
    "NAME": "",
    "CITY": "Santa Cruz",
    "ST": "CA",
    "LAT": 36.9741,
    "LNG": -122.0307
  },
  {
    "NAME": "",
    "CITY": "Monterey",
    "ST": "CA",
    "LAT": 36.6002,
    "LNG": -121.8947
  },
  {
    "NAME": "",
    "CITY": "Morro Bay",
    "ST": "CA",
    "LAT": 35.3658,
    "LNG": -120.8499
  },
  {
    "NAME": "",
    "CITY": "Pismo Beach",
    "ST": "CA",
    "LAT": 35.1427,
    "LNG": -120.6413
  },
  {
    "NAME": "",
    "CITY": "Santa Barbara",
    "ST": "CA",
    "LAT": 34.4208,
    "LNG": -119.6982
  },
  {
    "NAME": "",
    "CITY": "Ventura",
    "ST": "CA",
    "LAT": 34.2744,
    "LNG": -119.2291
  },
  {
    "NAME": "",
    "CITY": "Oxnard",
    "ST": "CA",
    "LAT": 34.1975,
    "LNG": -119.1771
  },
  {
    "NAME": "",
    "CITY": "Port Hueneme",
    "ST": "CA",
    "LAT": 34.1476,
    "LNG": -119.1946
  },
  {
    "NAME": "",
    "CITY": "Malibu",
    "ST": "CA",
    "LAT": 34.0022,
    "LNG": -118.7798
  },
  {
    "NAME": "",
    "CITY": "Santa Monica",
    "ST": "CA",
    "LAT": 34.0195,
    "LNG": -118.4912
  },
  {
    "NAME": "",
    "CITY": "Redondo Beach",
    "ST": "CA",
    "LAT": 33.8492,
    "LNG": -118.3884
  },
  {
    "NAME": "",
    "CITY": "Long Beach",
    "ST": "CA",
    "LAT": 33.7701,
    "LNG": -118.1937
  },
  {
    "NAME": "",
    "CITY": "Newport Beach",
    "ST": "CA",
    "LAT": 33.6189,
    "LNG": -117.9289
  },
  {
    "NAME": "",
    "CITY": "San Diego",
    "ST": "CA",
    "LAT": 32.7157,
    "LNG": -117.1611
  },
  {
    "NAME": "",
    "CITY": "Encinitas",
    "ST": "CA",
    "LAT": 33.0367,
    "LNG": -117.2914
  },
  {
    "NAME": "",
    "CITY": "Oceanside",
    "ST": "CA",
    "LAT": 33.1959,
    "LNG": -117.3795
  },
  {
    "NAME": "",
    "CITY": "Carlsbad",
    "ST": "CA",
    "LAT": 33.1581,
    "LNG": -117.3506
  },
  {
    "NAME": "",
    "CITY": "Brownsville",
    "ST": "TX",
    "LAT": 25.9018,
    "LNG": -97.4975
  },
  {
    "NAME": "",
    "CITY": "Corpus Christi",
    "ST": "TX",
    "LAT": 27.8006,
    "LNG": -97.3964
  },
  {
    "NAME": "",
    "CITY": "Port Aransas",
    "ST": "TX",
    "LAT": 27.8392,
    "LNG": -97.0605
  },
  {
    "NAME": "",
    "CITY": "Rockport",
    "ST": "TX",
    "LAT": 28.0186,
    "LNG": -97.0555
  },
  {
    "NAME": "",
    "CITY": "Port Lavaca",
    "ST": "TX",
    "LAT": 28.6144,
    "LNG": -96.6275
  },
  {
    "NAME": "",
    "CITY": "Palacios",
    "ST": "TX",
    "LAT": 28.708,
    "LNG": -96.2169
  },
  {
    "NAME": "",
    "CITY": "Bay City",
    "ST": "TX",
    "LAT": 28.9819,
    "LNG": -95.9697
  },
  {
    "NAME": "",
    "CITY": "Lake Jackson",
    "ST": "TX",
    "LAT": 29.0336,
    "LNG": -95.4347
  },
  {
    "NAME": "",
    "CITY": "Freeport",
    "ST": "TX",
    "LAT": 28.9564,
    "LNG": -95.358
  },
  {
    "NAME": "",
    "CITY": "Galveston",
    "ST": "TX",
    "LAT": 29.3014,
    "LNG": -94.7977
  },
  {
    "NAME": "",
    "CITY": "Port Bolivar",
    "ST": "TX",
    "LAT": 29.4811,
    "LNG": -94.7655
  },
  {
    "NAME": "",
    "CITY": "Beaumont",
    "ST": "TX",
    "LAT": 30.0858,
    "LNG": -94.1018
  },
  {
    "NAME": "",
    "CITY": "Port Arthur",
    "ST": "TX",
    "LAT": 29.8975,
    "LNG": -93.9277
  },
  {
    "NAME": "",
    "CITY": "Orange",
    "ST": "TX",
    "LAT": 30.0947,
    "LNG": -93.736
  },
  {
    "NAME": "",
    "CITY": "Lake Charles",
    "ST": "LA",
    "LAT": 30.2266,
    "LNG": -93.2174
  },
  {
    "NAME": "",
    "CITY": "Sulphur",
    "ST": "LA",
    "LAT": 30.2369,
    "LNG": -93.3774
  },
  {
    "NAME": "",
    "CITY": "Cameron",
    "ST": "LA",
    "LAT": 29.7988,
    "LNG": -93.3085
  },
  {
    "NAME": "",
    "CITY": "Abbeville",
    "ST": "LA",
    "LAT": 29.9744,
    "LNG": -92.1343
  },
  {
    "NAME": "",
    "CITY": "New Iberia",
    "ST": "LA",
    "LAT": 30.0035,
    "LNG": -91.8187
  },
  {
    "NAME": "",
    "CITY": "Morgan City",
    "ST": "LA",
    "LAT": 29.6994,
    "LNG": -91.2068
  },
  {
    "NAME": "",
    "CITY": "Houma",
    "ST": "LA",
    "LAT": 29.5958,
    "LNG": -90.7195
  },
  {
    "NAME": "",
    "CITY": "Gulfport",
    "ST": "MS",
    "LAT": 30.3674,
    "LNG": -89.0928
  },
  {
    "NAME": "",
    "CITY": "Biloxi",
    "ST": "MS",
    "LAT": 30.396,
    "LNG": -88.8853
  },
  {
    "NAME": "",
    "CITY": "Pascagoula",
    "ST": "MS",
    "LAT": 30.3658,
    "LNG": -88.5561
  },
  {
    "NAME": "",
    "CITY": "Bayou La Batre",
    "ST": "AL",
    "LAT": 30.403,
    "LNG": -88.2481
  },
  {
    "NAME": "",
    "CITY": "Mobile",
    "ST": "AL",
    "LAT": 30.6944,
    "LNG": -88.0431
  },
  {
    "NAME": "",
    "CITY": "Gulf Shores",
    "ST": "AL",
    "LAT": 30.246,
    "LNG": -87.7008
  },
  {
    "NAME": "",
    "CITY": "Orange Beach",
    "ST": "AL",
    "LAT": 30.2949,
    "LNG": -87.5747
  },
  {
    "NAME": "",
    "CITY": "Pensacola",
    "ST": "FL",
    "LAT": 30.4213,
    "LNG": -87.2169
  },
  {
    "NAME": "",
    "CITY": "Fort Walton Beach",
    "ST": "FL",
    "LAT": 30.4055,
    "LNG": -86.618
  },
  {
    "NAME": "",
    "CITY": "Destin",
    "ST": "FL",
    "LAT": 30.3935,
    "LNG": -86.4955
  },
  {
    "NAME": "",
    "CITY": "Panama City",
    "ST": "FL",
    "LAT": 30.1588,
    "LNG": -85.6602
  },
  {
    "NAME": "",
    "CITY": "Port St. Joe",
    "ST": "FL",
    "LAT": 29.7994,
    "LNG": -85.3024
  },
  {
    "NAME": "",
    "CITY": "Apalachicola",
    "ST": "FL",
    "LAT": 29.7255,
    "LNG": -84.983
  },
  {
    "NAME": "",
    "CITY": "Carrabelle",
    "ST": "FL",
    "LAT": 29.8516,
    "LNG": -84.661
  },
  {
    "NAME": "",
    "CITY": "St. Marks",
    "ST": "FL",
    "LAT": 30.1655,
    "LNG": -84.2057
  },
  {
    "NAME": "",
    "CITY": "Tallahassee",
    "ST": "FL",
    "LAT": 30.4383,
    "LNG": -84.2807
  },
  {
    "NAME": "",
    "CITY": "St. Augustine",
    "ST": "FL",
    "LAT": 29.8947,
    "LNG": -81.3145
  },
  {
    "NAME": "",
    "CITY": "Daytona Beach",
    "ST": "FL",
    "LAT": 29.2108,
    "LNG": -81.0228
  },
  {
    "NAME": "",
    "CITY": "Melbourne",
    "ST": "FL",
    "LAT": 28.0836,
    "LNG": -80.6081
  },
  {
    "NAME": "",
    "CITY": "Vero Beach",
    "ST": "FL",
    "LAT": 27.6386,
    "LNG": -80.3973
  },
  {
    "NAME": "",
    "CITY": "Fort Pierce",
    "ST": "FL",
    "LAT": 27.4467,
    "LNG": -80.3256
  },
  {
    "NAME": "",
    "CITY": "Port St. Lucie",
    "ST": "FL",
    "LAT": 27.2731,
    "LNG": -80.3573
  },
  {
    "NAME": "",
    "CITY": "Jupiter",
    "ST": "FL",
    "LAT": 26.9342,
    "LNG": -80.0942
  },
  {
    "NAME": "",
    "CITY": "West Palm Beach",
    "ST": "FL",
    "LAT": 26.7153,
    "LNG": -80.0534
  },
  {
    "NAME": "",
    "CITY": "Delray Beach",
    "ST": "FL",
    "LAT": 26.4615,
    "LNG": -80.0728
  },
  {
    "NAME": "",
    "CITY": "Boca Raton",
    "ST": "FL",
    "LAT": 26.3687,
    "LNG": -80.1289
  },
  {
    "NAME": "",
    "CITY": "Fort Lauderdale",
    "ST": "FL",
    "LAT": 26.1224,
    "LNG": -80.1373
  },
  {
    "NAME": "",
    "CITY": "Hollywood",
    "ST": "FL",
    "LAT": 26.0112,
    "LNG": -80.1495
  },
  {
    "NAME": "",
    "CITY": "Miami Beach",
    "ST": "FL",
    "LAT": 25.7907,
    "LNG": -80.13
  },
  {
    "NAME": "",
    "CITY": "Key West",
    "ST": "FL",
    "LAT": 24.5551,
    "LNG": -81.781
  },
  {
    "NAME": "",
    "CITY": "Tampa",
    "ST": "FL",
    "LAT": 27.9506,
    "LNG": -82.4572
  },
  {
    "NAME": "",
    "CITY": "St. Petersburg",
    "ST": "FL",
    "LAT": 27.7731,
    "LNG": -82.6403
  },
  {
    "NAME": "",
    "CITY": "Clearwater",
    "ST": "FL",
    "LAT": 27.9659,
    "LNG": -82.8001
  },
  {
    "NAME": "",
    "CITY": "Dunedin",
    "ST": "FL",
    "LAT": 28.0195,
    "LNG": -82.7729
  },
  {
    "NAME": "",
    "CITY": "Tarpon Springs",
    "ST": "FL",
    "LAT": 28.1461,
    "LNG": -82.7565
  },
  {
    "NAME": "",
    "CITY": "New Smyrna Beach",
    "ST": "FL",
    "LAT": 29.0258,
    "LNG": -80.927
  },
  {
    "NAME": "",
    "CITY": "Palm Coast",
    "ST": "FL",
    "LAT": 29.5847,
    "LNG": -81.2078
  },
  {
    "NAME": "",
    "CITY": "Fernandina Beach",
    "ST": "FL",
    "LAT": 30.6697,
    "LNG": -81.4626
  },
  {
    "NAME": "",
    "CITY": "Jacksonville Beach",
    "ST": "FL",
    "LAT": 30.2947,
    "LNG": -81.3931
  },
  {
    "NAME": "",
    "CITY": "Brunswick",
    "ST": "GA",
    "LAT": 31.1497,
    "LNG": -81.4915
  },
  {
    "NAME": "",
    "CITY": "St. Marys",
    "ST": "GA",
    "LAT": 30.7305,
    "LNG": -81.5465
  },
  {
    "NAME": "",
    "CITY": "Kingsland",
    "ST": "GA",
    "LAT": 30.7986,
    "LNG": -81.6682
  },
  {
    "NAME": "",
    "CITY": "Darien",
    "ST": "GA",
    "LAT": 31.3716,
    "LNG": -81.4337
  },
  {
    "NAME": "",
    "CITY": "Tybee Island",
    "ST": "GA",
    "LAT": 32.001,
    "LNG": -80.8473
  },
  {
    "NAME": "",
    "CITY": "Hilton Head Island",
    "ST": "SC",
    "LAT": 32.2163,
    "LNG": -80.7526
  },
  {
    "NAME": "",
    "CITY": "Beaufort",
    "ST": "SC",
    "LAT": 32.4316,
    "LNG": -80.6698
  },
  {
    "NAME": "",
    "CITY": "Charleston",
    "ST": "SC",
    "LAT": 32.7765,
    "LNG": -79.9311
  },
  {
    "NAME": "",
    "CITY": "Mount Pleasant",
    "ST": "SC",
    "LAT": 32.7941,
    "LNG": -79.8623
  },
  {
    "NAME": "",
    "CITY": "Georgetown",
    "ST": "SC",
    "LAT": 33.3768,
    "LNG": -79.2828
  },
  {
    "NAME": "",
    "CITY": "Myrtle Beach",
    "ST": "SC",
    "LAT": 33.6891,
    "LNG": -78.887
  },
  {
    "NAME": "",
    "CITY": "North Myrtle Beach",
    "ST": "SC",
    "LAT": 33.8157,
    "LNG": -78.68
  },
  {
    "NAME": "",
    "CITY": "Murrells Inlet",
    "ST": "SC",
    "LAT": 33.5516,
    "LNG": -79.0442
  },
  {
    "NAME": "",
    "CITY": "Pawleys Island",
    "ST": "SC",
    "LAT": 33.4354,
    "LNG": -79.1217
  },
  {
    "NAME": "",
    "CITY": "Wilmington",
    "ST": "NC",
    "LAT": 34.2257,
    "LNG": -77.9447
  },
  {
    "NAME": "",
    "CITY": "Wrightsville Beach",
    "ST": "NC",
    "LAT": 34.2085,
    "LNG": -77.7972
  },
  {
    "NAME": "",
    "CITY": "Carolina Beach",
    "ST": "NC",
    "LAT": 34.0355,
    "LNG": -77.8903
  },
  {
    "NAME": "",
    "CITY": "Kure Beach",
    "ST": "NC",
    "LAT": 34.0027,
    "LNG": -77.9055
  },
  {
    "NAME": "",
    "CITY": "Southport",
    "ST": "NC",
    "LAT": 33.9218,
    "LNG": -78.02
  },
  {
    "NAME": "",
    "CITY": "Morehead City",
    "ST": "NC",
    "LAT": 34.7229,
    "LNG": -76.8116
  },
  {
    "NAME": "",
    "CITY": "Beaufort",
    "ST": "NC",
    "LAT": 34.7204,
    "LNG": -76.6649
  },
  {
    "NAME": "",
    "CITY": "Ocracoke",
    "ST": "NC",
    "LAT": 35.1029,
    "LNG": -75.9757
  },
  {
    "NAME": "",
    "CITY": "Hatteras",
    "ST": "NC",
    "LAT": 35.2257,
    "LNG": -75.6913
  },
  {
    "NAME": "",
    "CITY": "Nags Head",
    "ST": "NC",
    "LAT": 35.9576,
    "LNG": -75.626
  },
  {
    "NAME": "",
    "CITY": "Kitty Hawk",
    "ST": "NC",
    "LAT": 36.0646,
    "LNG": -75.7057
  },
  {
    "NAME": "",
    "CITY": "Kill Devil Hills",
    "ST": "NC",
    "LAT": 36.0304,
    "LNG": -75.6691
  },
  {
    "NAME": "",
    "CITY": "Manteo",
    "ST": "NC",
    "LAT": 35.9082,
    "LNG": -75.6757
  },
  {
    "NAME": "",
    "CITY": "Virginia Beach",
    "ST": "VA",
    "LAT": 36.8529,
    "LNG": -75.978
  },
  {
    "NAME": "",
    "CITY": "Norfolk",
    "ST": "VA",
    "LAT": 36.8508,
    "LNG": -76.2859
  },
  {
    "NAME": "",
    "CITY": "Portsmouth",
    "ST": "VA",
    "LAT": 36.8354,
    "LNG": -76.2983
  },
  {
    "NAME": "",
    "CITY": "Newport News",
    "ST": "VA",
    "LAT": 37.0871,
    "LNG": -76.473
  },
  {
    "NAME": "",
    "CITY": "Hampton",
    "ST": "VA",
    "LAT": 37.0299,
    "LNG": -76.3452
  },
  {
    "NAME": "",
    "CITY": "Poquoson",
    "ST": "VA",
    "LAT": 37.1218,
    "LNG": -76.3427
  },
  {
    "NAME": "",
    "CITY": "Chesapeake",
    "ST": "VA",
    "LAT": 36.7682,
    "LNG": -76.2875
  },
  {
    "NAME": "",
    "CITY": "Ocean City",
    "ST": "MD",
    "LAT": 38.3368,
    "LNG": -75.0838
  },
  {
    "NAME": "",
    "CITY": "Rehoboth Beach",
    "ST": "DE",
    "LAT": 38.7207,
    "LNG": -75.0777
  },
  {
    "NAME": "",
    "CITY": "Bethany Beach",
    "ST": "DE",
    "LAT": 38.539,
    "LNG": -75.0555
  },
  {
    "NAME": "",
    "CITY": "Fenwick Island",
    "ST": "DE",
    "LAT": 38.4671,
    "LNG": -75.0452
  },
  {
    "NAME": "",
    "CITY": "Lewes",
    "ST": "DE",
    "LAT": 38.7746,
    "LNG": -75.1391
  },
  {
    "NAME": "",
    "CITY": "Cape May",
    "ST": "NJ",
    "LAT": 38.9362,
    "LNG": -74.906
  },
  {
    "NAME": "",
    "CITY": "Wildwood",
    "ST": "NJ",
    "LAT": 38.9912,
    "LNG": -74.8146
  },
  {
    "NAME": "",
    "CITY": "Sea Isle City",
    "ST": "NJ",
    "LAT": 39.1512,
    "LNG": -74.6977
  },
  {
    "NAME": "",
    "CITY": "Ocean City",
    "ST": "NJ",
    "LAT": 39.2779,
    "LNG": -74.5757
  },
  {
    "NAME": "",
    "CITY": "Atlantic City",
    "ST": "NJ",
    "LAT": 39.3643,
    "LNG": -74.4229
  },
  {
    "NAME": "",
    "CITY": "Long Beach",
    "ST": "NJ",
    "LAT": 40.0979,
    "LNG": -74.058
  },
  {
    "NAME": "",
    "CITY": "Asbury Park",
    "ST": "NJ",
    "LAT": 40.2207,
    "LNG": -74.0121
  },
  {
    "NAME": "",
    "CITY": "Long Branch",
    "ST": "NJ",
    "LAT": 40.2957,
    "LNG": -73.9921
  },
  {
    "NAME": "",
    "CITY": "Sandy Hook",
    "ST": "NJ",
    "LAT": 40.4718,
    "LNG": -74.0014
  },
  {
    "NAME": "",
    "CITY": "New York",
    "ST": "NY",
    "LAT": 40.7128,
    "LNG": -74.006
  },
  {
    "NAME": "",
    "CITY": "Brooklyn",
    "ST": "NY",
    "LAT": 40.6782,
    "LNG": -73.9442
  },
  {
    "NAME": "",
    "CITY": "Staten Island",
    "ST": "NY",
    "LAT": 40.5795,
    "LNG": -74.1502
  },
  {
    "NAME": "",
    "CITY": "Bridgeport",
    "ST": "CT",
    "LAT": 41.1792,
    "LNG": -73.1897
  },
  {
    "NAME": "",
    "CITY": "New Haven",
    "ST": "CT",
    "LAT": 41.3083,
    "LNG": -72.9279
  },
  {
    "NAME": "",
    "CITY": "New London",
    "ST": "CT",
    "LAT": 41.3554,
    "LNG": -72.0995
  },
  {
    "NAME": "",
    "CITY": "Mystic",
    "ST": "CT",
    "LAT": 41.354,
    "LNG": -71.9665
  },
  {
    "NAME": "",
    "CITY": "Westerly",
    "ST": "RI",
    "LAT": 41.3776,
    "LNG": -71.8267
  },
  {
    "NAME": "",
    "CITY": "Narragansett",
    "ST": "RI",
    "LAT": 41.4504,
    "LNG": -71.4595
  },
  {
    "NAME": "",
    "CITY": "Newport",
    "ST": "RI",
    "LAT": 41.4901,
    "LNG": -71.3128
  },
  {
    "NAME": "",
    "CITY": "Providence",
    "ST": "RI",
    "LAT": 41.824,
    "LNG": -71.4128
  },
  {
    "NAME": "",
    "CITY": "Fall River",
    "ST": "MA",
    "LAT": 41.7015,
    "LNG": -71.1553
  },
  {
    "NAME": "",
    "CITY": "New Bedford",
    "ST": "MA",
    "LAT": 41.6362,
    "LNG": -70.9342
  },
  {
    "NAME": "",
    "CITY": "Barnstable",
    "ST": "MA",
    "LAT": 41.7001,
    "LNG": -70.3022
  },
  {
    "NAME": "",
    "CITY": "Falmouth",
    "ST": "MA",
    "LAT": 41.5515,
    "LNG": -70.6156
  },
  {
    "NAME": "",
    "CITY": "Hyannis",
    "ST": "MA",
    "LAT": 41.6529,
    "LNG": -70.2828
  },
  {
    "NAME": "",
    "CITY": "Chatham",
    "ST": "MA",
    "LAT": 41.6807,
    "LNG": -69.9595
  },
  {
    "NAME": "",
    "CITY": "Provincetown",
    "ST": "MA",
    "LAT": 42.0565,
    "LNG": -70.1778
  },
  {
    "NAME": "",
    "CITY": "Boston",
    "ST": "MA",
    "LAT": 42.3601,
    "LNG": -71.0589
  },
  {
    "NAME": "",
    "CITY": "Salem",
    "ST": "MA",
    "LAT": 42.5195,
    "LNG": -70.8967
  },
  {
    "NAME": "",
    "CITY": "Gloucester",
    "ST": "MA",
    "LAT": 42.6159,
    "LNG": -70.662
  },
  {
    "NAME": "",
    "CITY": "Newburyport",
    "ST": "MA",
    "LAT": 42.812,
    "LNG": -70.8773
  },
  {
    "NAME": "",
    "CITY": "Hampton",
    "ST": "NH",
    "LAT": 42.9362,
    "LNG": -70.8467
  },
  {
    "NAME": "",
    "CITY": "Portsmouth",
    "ST": "NH",
    "LAT": 43.0718,
    "LNG": -70.7626
  },
  {
    "NAME": "",
    "CITY": "York",
    "ST": "NH",
    "LAT": 43.1337,
    "LNG": -70.6478
  },
  {
    "NAME": "",
    "CITY": "Kennebunkport",
    "ST": "ME",
    "LAT": 43.3584,
    "LNG": -70.4795
  },
  {
    "NAME": "",
    "CITY": "Old Orchard Beach",
    "ST": "ME",
    "LAT": 43.5176,
    "LNG": -70.3778
  },
  {
    "NAME": "",
    "CITY": "Scarborough",
    "ST": "ME",
    "LAT": 43.5781,
    "LNG": -70.3234
  },
  {
    "NAME": "",
    "CITY": "Portland",
    "ST": "ME",
    "LAT": 43.6591,
    "LNG": -70.2568
  },
  {
    "NAME": "",
    "CITY": "South Portland",
    "ST": "ME",
    "LAT": 43.6415,
    "LNG": -70.2409
  },
  {
    "NAME": "",
    "CITY": "Freeport",
    "ST": "ME",
    "LAT": 43.8568,
    "LNG": -70.1031
  },
  {
    "NAME": "",
    "CITY": "Brunswick",
    "ST": "ME",
    "LAT": 43.9145,
    "LNG": -69.9653
  },
  {
    "NAME": "",
    "CITY": "Bath",
    "ST": "ME",
    "LAT": 43.9151,
    "LNG": -69.8206
  },
  {
    "NAME": "",
    "CITY": "Boothbay Harbor",
    "ST": "ME",
    "LAT": 43.8518,
    "LNG": -69.6278
  },
  {
    "NAME": "",
    "CITY": "Rockland",
    "ST": "ME",
    "LAT": 44.1037,
    "LNG": -69.1089
  },
  {
    "NAME": "",
    "CITY": "Camden",
    "ST": "ME",
    "LAT": 44.2098,
    "LNG": -69.0648
  },
  {
    "NAME": "",
    "CITY": "Belfast",
    "ST": "ME",
    "LAT": 44.4256,
    "LNG": -69.0064
  },
  {
    "NAME": "",
    "CITY": "Ellsworth",
    "ST": "ME",
    "LAT": 44.5434,
    "LNG": -68.4195
  },
  {
    "NAME": "",
    "CITY": "Bar Harbor",
    "ST": "ME",
    "LAT": 44.3876,
    "LNG": -68.2039
  },
  {
    "NAME": "",
    "CITY": "Ketchikan",
    "ST": "AK",
    "LAT": 55.3422,
    "LNG": -131.6462
  },
  {
    "NAME": "",
    "CITY": "Juneau",
    "ST": "AK",
    "LAT": 58.3019,
    "LNG": -134.4197
  },
  {
    "NAME": "",
    "CITY": "Anchorage",
    "ST": "AK",
    "LAT": 61.2181,
    "LNG": -149.9003
  },
  {
    "NAME": "",
    "CITY": "Homer",
    "ST": "AK",
    "LAT": 59.6425,
    "LNG": -151.5483
  },
  {
    "NAME": "",
    "CITY": "Kodiak",
    "ST": "AK",
    "LAT": 57.79,
    "LNG": -152.4072
  },
  {
    "NAME": "",
    "CITY": "Sitka",
    "ST": "AK",
    "LAT": 57.0531,
    "LNG": -135.33
  },
  {
    "NAME": "",
    "CITY": "Hilo",
    "ST": "HI",
    "LAT": 19.7297,
    "LNG": -155.09
  },
  {
    "NAME": "",
    "CITY": "Honolulu",
    "ST": "HI",
    "LAT": 21.3069,
    "LNG": -157.8583
  },
  {
    "NAME": "",
    "CITY": "Kahului",
    "ST": "HI",
    "LAT": 20.8906,
    "LNG": -156.4742
  },
  {
    "NAME": "",
    "CITY": "Lihue",
    "ST": "HI",
    "LAT": 21.9783,
    "LNG": -159.3711
  },
  {
    "NAME": "",
    "CITY": "Astoria",
    "ST": "OR",
    "LAT": 46.1879,
    "LNG": -123.8313
  },
  {
    "NAME": "",
    "CITY": "Cannon Beach",
    "ST": "OR",
    "LAT": 45.8918,
    "LNG": -123.9615
  },
  {
    "NAME": "",
    "CITY": "Newport",
    "ST": "OR",
    "LAT": 44.6368,
    "LNG": -124.0532
  },
  {
    "NAME": "",
    "CITY": "Florence",
    "ST": "OR",
    "LAT": 44.0121,
    "LNG": -124.0998
  },
  {
    "NAME": "",
    "CITY": "Coos Bay",
    "ST": "OR",
    "LAT": 43.3665,
    "LNG": -124.2179
  },
  {
    "NAME": "",
    "CITY": "Aberdeen",
    "ST": "WA",
    "LAT": 46.9754,
    "LNG": -123.8152
  },
  {
    "NAME": "",
    "CITY": "Ocean Shores",
    "ST": "WA",
    "LAT": 46.9734,
    "LNG": -124.156
  },
  {
    "NAME": "",
    "CITY": "Hoquiam",
    "ST": "WA",
    "LAT": 46.9809,
    "LNG": -123.9057
  },
  {
    "NAME": "",
    "CITY": "Long Beach",
    "ST": "WA",
    "LAT": 46.3523,
    "LNG": -124.0535
  },
  {
    "NAME": "",
    "CITY": "Westport",
    "ST": "WA",
    "LAT": 46.8893,
    "LNG": -124.1041
  },
  {
    "NAME": "",
    "CITY": "Ilwaco",
    "ST": "WA",
    "LAT": 46.3054,
    "LNG": -124.0432
  },
  {
    "NAME": "",
    "CITY": "Crescent City",
    "ST": "CA",
    "LAT": 41.7557,
    "LNG": -124.2037
  },
  {
    "NAME": "",
    "CITY": "Eureka",
    "ST": "CA",
    "LAT": 40.8021,
    "LNG": -124.1637
  },
  {
    "NAME": "",
    "CITY": "Arcata",
    "ST": "CA",
    "LAT": 40.8665,
    "LNG": -124.0829
  },
  {
    "NAME": "",
    "CITY": "Fort Bragg",
    "ST": "CA",
    "LAT": 39.4457,
    "LNG": -123.8053
  },
  {
    "NAME": "",
    "CITY": "Mendocino",
    "ST": "CA",
    "LAT": 39.3074,
    "LNG": -123.7997
  },
  {
    "NAME": "",
    "CITY": "Bodega Bay",
    "ST": "CA",
    "LAT": 38.3324,
    "LNG": -123.0481
  },
  {
    "NAME": "",
    "CITY": "Santa Cruz",
    "ST": "CA",
    "LAT": 36.9741,
    "LNG": -122.0307
  },
  {
    "NAME": "",
    "CITY": "Monterey",
    "ST": "CA",
    "LAT": 36.6002,
    "LNG": -121.8947
  },
  {
    "NAME": "",
    "CITY": "Morro Bay",
    "ST": "CA",
    "LAT": 35.3658,
    "LNG": -120.8499
  },
  {
    "NAME": "",
    "CITY": "Pismo Beach",
    "ST": "CA",
    "LAT": 35.1427,
    "LNG": -120.6413
  },
  {
    "NAME": "",
    "CITY": "Santa Barbara",
    "ST": "CA",
    "LAT": 34.4208,
    "LNG": -119.6982
  },
  {
    "NAME": "",
    "CITY": "Ventura",
    "ST": "CA",
    "LAT": 34.2744,
    "LNG": -119.2291
  },
  {
    "NAME": "",
    "CITY": "Oxnard",
    "ST": "CA",
    "LAT": 34.1975,
    "LNG": -119.1771
  },
  {
    "NAME": "",
    "CITY": "Port Hueneme",
    "ST": "CA",
    "LAT": 34.1476,
    "LNG": -119.1946
  },
  {
    "NAME": "",
    "CITY": "Malibu",
    "ST": "CA",
    "LAT": 34.0022,
    "LNG": -118.7798
  },
  {
    "NAME": "",
    "CITY": "Santa Monica",
    "ST": "CA",
    "LAT": 34.0195,
    "LNG": -118.4912
  },
  {
    "NAME": "",
    "CITY": "Redondo Beach",
    "ST": "CA",
    "LAT": 33.8492,
    "LNG": -118.3884
  },
  {
    "NAME": "",
    "CITY": "Long Beach",
    "ST": "CA",
    "LAT": 33.7701,
    "LNG": -118.1937
  },
  {
    "NAME": "",
    "CITY": "Newport Beach",
    "ST": "CA",
    "LAT": 33.6189,
    "LNG": -117.9289
  },
  {
    "NAME": "",
    "CITY": "San Diego",
    "ST": "CA",
    "LAT": 32.7157,
    "LNG": -117.1611
  },
  {
    "NAME": "",
    "CITY": "Encinitas",
    "ST": "CA",
    "LAT": 33.0367,
    "LNG": -117.2914
  },
  {
    "NAME": "",
    "CITY": "Oceanside",
    "ST": "CA",
    "LAT": 33.1959,
    "LNG": -117.3795
  },
  {
    "NAME": "",
    "CITY": "Carlsbad",
    "ST": "CA",
    "LAT": 33.1581,
    "LNG": -117.3506
  },
  {
    "NAME": "",
    "CITY": "Brownsville",
    "ST": "TX",
    "LAT": 25.9018,
    "LNG": -97.4975
  },
  {
    "NAME": "",
    "CITY": "Corpus Christi",
    "ST": "TX",
    "LAT": 27.8006,
    "LNG": -97.3964
  },
  {
    "NAME": "",
    "CITY": "Port Aransas",
    "ST": "TX",
    "LAT": 27.8392,
    "LNG": -97.0605
  },
  {
    "NAME": "",
    "CITY": "Rockport",
    "ST": "TX",
    "LAT": 28.0186,
    "LNG": -97.0555
  },
  {
    "NAME": "",
    "CITY": "Port Lavaca",
    "ST": "TX",
    "LAT": 28.6144,
    "LNG": -96.6275
  },
  {
    "NAME": "",
    "CITY": "Palacios",
    "ST": "TX",
    "LAT": 28.708,
    "LNG": -96.2169
  },
  {
    "NAME": "",
    "CITY": "Bay City",
    "ST": "TX",
    "LAT": 28.9819,
    "LNG": -95.9697
  },
  {
    "NAME": "",
    "CITY": "Lake Jackson",
    "ST": "TX",
    "LAT": 29.0336,
    "LNG": -95.4347
  },
  {
    "NAME": "",
    "CITY": "Freeport",
    "ST": "TX",
    "LAT": 28.9564,
    "LNG": -95.358
  },
  {
    "NAME": "",
    "CITY": "Galveston",
    "ST": "TX",
    "LAT": 29.3014,
    "LNG": -94.7977
  },
  {
    "NAME": "",
    "CITY": "Port Bolivar",
    "ST": "TX",
    "LAT": 29.4811,
    "LNG": -94.7655
  },
  {
    "NAME": "",
    "CITY": "Beaumont",
    "ST": "TX",
    "LAT": 30.0858,
    "LNG": -94.1018
  },
  {
    "NAME": "",
    "CITY": "Port Arthur",
    "ST": "TX",
    "LAT": 29.8975,
    "LNG": -93.9277
  },
  {
    "NAME": "",
    "CITY": "Orange",
    "ST": "TX",
    "LAT": 30.0947,
    "LNG": -93.736
  },
  {
    "NAME": "",
    "CITY": "Lake Charles",
    "ST": "LA",
    "LAT": 30.2266,
    "LNG": -93.2174
  },
  {
    "NAME": "",
    "CITY": "Sulphur",
    "ST": "LA",
    "LAT": 30.2369,
    "LNG": -93.3774
  },
  {
    "NAME": "",
    "CITY": "Cameron",
    "ST": "LA",
    "LAT": 29.7988,
    "LNG": -93.3085
  },
  {
    "NAME": "",
    "CITY": "Abbeville",
    "ST": "LA",
    "LAT": 29.9744,
    "LNG": -92.1343
  },
  {
    "NAME": "",
    "CITY": "New Iberia",
    "ST": "LA",
    "LAT": 30.0035,
    "LNG": -91.8187
  },
  {
    "NAME": "",
    "CITY": "Morgan City",
    "ST": "LA",
    "LAT": 29.6994,
    "LNG": -91.2068
  },
  {
    "NAME": "",
    "CITY": "Houma",
    "ST": "LA",
    "LAT": 29.5958,
    "LNG": -90.7195
  },
  {
    "NAME": "",
    "CITY": "Gulfport",
    "ST": "MS",
    "LAT": 30.3674,
    "LNG": -89.0928
  },
  {
    "NAME": "",
    "CITY": "Biloxi",
    "ST": "MS",
    "LAT": 30.396,
    "LNG": -88.8853
  },
  {
    "NAME": "",
    "CITY": "Pascagoula",
    "ST": "MS",
    "LAT": 30.3658,
    "LNG": -88.5561
  },
  {
    "NAME": "",
    "CITY": "Bayou La Batre",
    "ST": "AL",
    "LAT": 30.403,
    "LNG": -88.2481
  },
  {
    "NAME": "",
    "CITY": "Mobile",
    "ST": "AL",
    "LAT": 30.6944,
    "LNG": -88.0431
  },
  {
    "NAME": "",
    "CITY": "Gulf Shores",
    "ST": "AL",
    "LAT": 30.246,
    "LNG": -87.7008
  },
  {
    "NAME": "",
    "CITY": "Orange Beach",
    "ST": "AL",
    "LAT": 30.2949,
    "LNG": -87.5747
  },
  {
    "NAME": "",
    "CITY": "Pensacola",
    "ST": "FL",
    "LAT": 30.4213,
    "LNG": -87.2169
  },
  {
    "NAME": "",
    "CITY": "Fort Walton Beach",
    "ST": "FL",
    "LAT": 30.4055,
    "LNG": -86.618
  },
  {
    "NAME": "",
    "CITY": "Destin",
    "ST": "FL",
    "LAT": 30.3935,
    "LNG": -86.4955
  },
  {
    "NAME": "",
    "CITY": "Panama City",
    "ST": "FL",
    "LAT": 30.1588,
    "LNG": -85.6602
  },
  {
    "NAME": "",
    "CITY": "Port St. Joe",
    "ST": "FL",
    "LAT": 29.7994,
    "LNG": -85.3024
  },
  {
    "NAME": "",
    "CITY": "Apalachicola",
    "ST": "FL",
    "LAT": 29.7255,
    "LNG": -84.983
  },
  {
    "NAME": "",
    "CITY": "Carrabelle",
    "ST": "FL",
    "LAT": 29.8516,
    "LNG": -84.661
  },
  {
    "NAME": "",
    "CITY": "St. Marks",
    "ST": "FL",
    "LAT": 30.1655,
    "LNG": -84.2057
  },
  {
    "NAME": "",
    "CITY": "Tallahassee",
    "ST": "FL",
    "LAT": 30.4383,
    "LNG": -84.2807
  },
  {
    "NAME": "",
    "CITY": "St. Augustine",
    "ST": "FL",
    "LAT": 29.8947,
    "LNG": -81.3145
  },
  {
    "NAME": "",
    "CITY": "Daytona Beach",
    "ST": "FL",
    "LAT": 29.2108,
    "LNG": -81.0228
  },
  {
    "NAME": "",
    "CITY": "Melbourne",
    "ST": "FL",
    "LAT": 28.0836,
    "LNG": -80.6081
  },
  {
    "NAME": "",
    "CITY": "Vero Beach",
    "ST": "FL",
    "LAT": 27.6386,
    "LNG": -80.3973
  },
  {
    "NAME": "",
    "CITY": "Fort Pierce",
    "ST": "FL",
    "LAT": 27.4467,
    "LNG": -80.3256
  },
  {
    "NAME": "",
    "CITY": "Port St. Lucie",
    "ST": "FL",
    "LAT": 27.2731,
    "LNG": -80.3573
  },
  {
    "NAME": "",
    "CITY": "Jupiter",
    "ST": "FL",
    "LAT": 26.9342,
    "LNG": -80.0942
  },
  {
    "NAME": "",
    "CITY": "West Palm Beach",
    "ST": "FL",
    "LAT": 26.7153,
    "LNG": -80.0534
  },
  {
    "NAME": "",
    "CITY": "Delray Beach",
    "ST": "FL",
    "LAT": 26.4615,
    "LNG": -80.0728
  },
  {
    "NAME": "",
    "CITY": "Boca Raton",
    "ST": "FL",
    "LAT": 26.3687,
    "LNG": -80.1289
  },
  {
    "NAME": "",
    "CITY": "Fort Lauderdale",
    "ST": "FL",
    "LAT": 26.1224,
    "LNG": -80.1373
  },
  {
    "NAME": "",
    "CITY": "Hollywood",
    "ST": "FL",
    "LAT": 26.0112,
    "LNG": -80.1495
  },

  {
    "NAME": "",
    "CITY": "Key West",
    "ST": "FL",
    "LAT": 24.5551,
    "LNG": -81.781
  },
  {
    "NAME": "",
    "CITY": "Tampa",
    "ST": "FL",
    "LAT": 27.9506,
    "LNG": -82.4572
  },
  {
    "NAME": "",
    "CITY": "St. Petersburg",
    "ST": "FL",
    "LAT": 27.7731,
    "LNG": -82.6403
  },
  {
    "NAME": "",
    "CITY": "Clearwater",
    "ST": "FL",
    "LAT": 27.9659,
    "LNG": -82.8001
  },
  {
    "NAME": "",
    "CITY": "Dunedin",
    "ST": "FL",
    "LAT": 28.0195,
    "LNG": -82.7729
  },
  {
    "NAME": "",
    "CITY": "Tarpon Springs",
    "ST": "FL",
    "LAT": 28.1461,
    "LNG": -82.7565
  },
  {
    "NAME": "",
    "CITY": "New Smyrna Beach",
    "ST": "FL",
    "LAT": 29.0258,
    "LNG": -80.927
  },
  {
    "NAME": "",
    "CITY": "Palm Coast",
    "ST": "FL",
    "LAT": 29.5847,
    "LNG": -81.2078
  },
  {
    "NAME": "",
    "CITY": "Fernandina Beach",
    "ST": "FL",
    "LAT": 30.6697,
    "LNG": -81.4626
  },
  {
    "NAME": "",
    "CITY": "Jacksonville Beach",
    "ST": "FL",
    "LAT": 30.2947,
    "LNG": -81.3931
  },
  {
    "NAME": "",
    "CITY": "Brunswick",
    "ST": "GA",
    "LAT": 31.1497,
    "LNG": -81.4915
  },
  {
    "NAME": "",
    "CITY": "St. Marys",
    "ST": "GA",
    "LAT": 30.7305,
    "LNG": -81.5465
  },
  {
    "NAME": "",
    "CITY": "Kingsland",
    "ST": "GA",
    "LAT": 30.7986,
    "LNG": -81.6682
  },
  {
    "NAME": "",
    "CITY": "Darien",
    "ST": "GA",
    "LAT": 31.3716,
    "LNG": -81.4337
  },
  {
    "NAME": "",
    "CITY": "Tybee Island",
    "ST": "GA",
    "LAT": 32.001,
    "LNG": -80.8473
  },
  {
    "NAME": "",
    "CITY": "Hilton Head Island",
    "ST": "SC",
    "LAT": 32.2163,
    "LNG": -80.7526
  },
  {
    "NAME": "",
    "CITY": "Beaufort",
    "ST": "SC",
    "LAT": 32.4316,
    "LNG": -80.6698
  },
  {
    "NAME": "",
    "CITY": "Charleston",
    "ST": "SC",
    "LAT": 32.7765,
    "LNG": -79.9311
  },
  {
    "NAME": "",
    "CITY": "Mount Pleasant",
    "ST": "SC",
    "LAT": 32.7941,
    "LNG": -79.8623
  },
  {
    "NAME": "",
    "CITY": "Georgetown",
    "ST": "SC",
    "LAT": 33.3768,
    "LNG": -79.2828
  },
  {
    "NAME": "",
    "CITY": "Myrtle Beach",
    "ST": "SC",
    "LAT": 33.6891,
    "LNG": -78.887
  },
  {
    "NAME": "",
    "CITY": "North Myrtle Beach",
    "ST": "SC",
    "LAT": 33.8157,
    "LNG": -78.68
  },
  {
    "NAME": "",
    "CITY": "Murrells Inlet",
    "ST": "SC",
    "LAT": 33.5516,
    "LNG": -79.0442
  },
  {
    "NAME": "",
    "CITY": "Pawleys Island",
    "ST": "SC",
    "LAT": 33.4354,
    "LNG": -79.1217
  },
  {
    "NAME": "",
    "CITY": "Wilmington",
    "ST": "NC",
    "LAT": 34.2257,
    "LNG": -77.9447
  },
  {
    "NAME": "",
    "CITY": "Wrightsville Beach",
    "ST": "NC",
    "LAT": 34.2085,
    "LNG": -77.7972
  },
  {
    "NAME": "",
    "CITY": "Carolina Beach",
    "ST": "NC",
    "LAT": 34.0355,
    "LNG": -77.8903
  },
  {
    "NAME": "",
    "CITY": "Kure Beach",
    "ST": "NC",
    "LAT": 34.0027,
    "LNG": -77.9055
  },
  {
    "NAME": "",
    "CITY": "Southport",
    "ST": "NC",
    "LAT": 33.9218,
    "LNG": -78.02
  },
  {
    "NAME": "",
    "CITY": "Morehead City",
    "ST": "NC",
    "LAT": 34.7229,
    "LNG": -76.8116
  },
  {
    "NAME": "",
    "CITY": "Beaufort",
    "ST": "NC",
    "LAT": 34.7204,
    "LNG": -76.6649
  },
  {
    "NAME": "",
    "CITY": "Ocracoke",
    "ST": "NC",
    "LAT": 35.1029,
    "LNG": -75.9757
  },
  {
    "NAME": "",
    "CITY": "Hatteras",
    "ST": "NC",
    "LAT": 35.2257,
    "LNG": -75.6913
  },
  {
    "NAME": "",
    "CITY": "Nags Head",
    "ST": "NC",
    "LAT": 35.9576,
    "LNG": -75.626
  },
  {
    "NAME": "",
    "CITY": "Kitty Hawk",
    "ST": "NC",
    "LAT": 36.0646,
    "LNG": -75.7057
  },
  {
    "NAME": "",
    "CITY": "Kill Devil Hills",
    "ST": "NC",
    "LAT": 36.0304,
    "LNG": -75.6691
  },
  {
    "NAME": "",
    "CITY": "Manteo",
    "ST": "NC",
    "LAT": 35.9082,
    "LNG": -75.6757
  },
  {
    "NAME": "",
    "CITY": "Virginia Beach",
    "ST": "VA",
    "LAT": 36.8529,
    "LNG": -75.978
  },
  {
    "NAME": "",
    "CITY": "Norfolk",
    "ST": "VA",
    "LAT": 36.8508,
    "LNG": -76.2859
  },
  {
    "NAME": "",
    "CITY": "Portsmouth",
    "ST": "VA",
    "LAT": 36.8354,
    "LNG": -76.2983
  },
  {
    "NAME": "",
    "CITY": "Newport News",
    "ST": "VA",
    "LAT": 37.0871,
    "LNG": -76.473
  },
  {
    "NAME": "",
    "CITY": "Hampton",
    "ST": "VA",
    "LAT": 37.0299,
    "LNG": -76.3452
  },
  {
    "NAME": "",
    "CITY": "Poquoson",
    "ST": "VA",
    "LAT": 37.1218,
    "LNG": -76.3427
  },
  {
    "NAME": "",
    "CITY": "Chesapeake",
    "ST": "VA",
    "LAT": 36.7682,
    "LNG": -76.2875
  },
  {
    "NAME": "",
    "CITY": "Ocean City",
    "ST": "MD",
    "LAT": 38.3368,
    "LNG": -75.0838
  },
  {
    "NAME": "",
    "CITY": "Rehoboth Beach",
    "ST": "DE",
    "LAT": 38.7207,
    "LNG": -75.0777
  },
  {
    "NAME": "",
    "CITY": "Bethany Beach",
    "ST": "DE",
    "LAT": 38.539,
    "LNG": -75.0555
  },
  {
    "NAME": "",
    "CITY": "Fenwick Island",
    "ST": "DE",
    "LAT": 38.4671,
    "LNG": -75.0452
  },
  {
    "NAME": "",
    "CITY": "Lewes",
    "ST": "DE",
    "LAT": 38.7746,
    "LNG": -75.1391
  },
  {
    "NAME": "",
    "CITY": "Cape May",
    "ST": "NJ",
    "LAT": 38.9362,
    "LNG": -74.906
  },
  {
    "NAME": "",
    "CITY": "Wildwood",
    "ST": "NJ",
    "LAT": 38.9912,
    "LNG": -74.8146
  },
  {
    "NAME": "",
    "CITY": "Sea Isle City",
    "ST": "NJ",
    "LAT": 39.1512,
    "LNG": -74.6977
  },
  {
    "NAME": "",
    "CITY": "Ocean City",
    "ST": "NJ",
    "LAT": 39.2779,
    "LNG": -74.5757
  },
  {
    "NAME": "",
    "CITY": "Atlantic City",
    "ST": "NJ",
    "LAT": 39.3643,
    "LNG": -74.4229
  },
  {
    "NAME": "",
    "CITY": "Long Beach",
    "ST": "NJ",
    "LAT": 40.0979,
    "LNG": -74.058
  },
  {
    "NAME": "",
    "CITY": "Asbury Park",
    "ST": "NJ",
    "LAT": 40.2207,
    "LNG": -74.0121
  },
  {
    "NAME": "",
    "CITY": "Long Branch",
    "ST": "NJ",
    "LAT": 40.2957,
    "LNG": -73.9921
  },
  {
    "NAME": "",
    "CITY": "Sandy Hook",
    "ST": "NJ",
    "LAT": 40.4718,
    "LNG": -74.0014
  },
  {
    "NAME": "",
    "CITY": "New York",
    "ST": "NY",
    "LAT": 40.7128,
    "LNG": -74.006
  },
  {
    "NAME": "",
    "CITY": "Brooklyn",
    "ST": "NY",
    "LAT": 40.6782,
    "LNG": -73.9442
  },
  {
    "NAME": "",
    "CITY": "Staten Island",
    "ST": "NY",
    "LAT": 40.5795,
    "LNG": -74.1502
  },
  {
    "NAME": "",
    "CITY": "Bridgeport",
    "ST": "CT",
    "LAT": 41.1792,
    "LNG": -73.1897
  },
  {
    "NAME": "",
    "CITY": "New Haven",
    "ST": "CT",
    "LAT": 41.3083,
    "LNG": -72.9279
  },
  {
    "NAME": "",
    "CITY": "New London",
    "ST": "CT",
    "LAT": 41.3554,
    "LNG": -72.0995
  },
  {
    "NAME": "",
    "CITY": "Mystic",
    "ST": "CT",
    "LAT": 41.354,
    "LNG": -71.9665
  },
  {
    "NAME": "",
    "CITY": "Westerly",
    "ST": "RI",
    "LAT": 41.3776,
    "LNG": -71.8267
  },
  {
    "NAME": "",
    "CITY": "Narragansett",
    "ST": "RI",
    "LAT": 41.4504,
    "LNG": -71.4595
  },
  {
    "NAME": "",
    "CITY": "Newport",
    "ST": "RI",
    "LAT": 41.4901,
    "LNG": -71.3128
  },
  {
    "NAME": "",
    "CITY": "Providence",
    "ST": "RI",
    "LAT": 41.824,
    "LNG": -71.4128
  },
  {
    "NAME": "",
    "CITY": "Fall River",
    "ST": "MA",
    "LAT": 41.7015,
    "LNG": -71.1553
  },
  {
    "NAME": "",
    "CITY": "New Bedford",
    "ST": "MA",
    "LAT": 41.6362,
    "LNG": -70.9342
  },
  {
    "NAME": "",
    "CITY": "Barnstable",
    "ST": "MA",
    "LAT": 41.7001,
    "LNG": -70.3022
  },
  {
    "NAME": "",
    "CITY": "Falmouth",
    "ST": "MA",
    "LAT": 41.5515,
    "LNG": -70.6156
  },
  {
    "NAME": "",
    "CITY": "Hyannis",
    "ST": "MA",
    "LAT": 41.6529,
    "LNG": -70.2828
  },
  {
    "NAME": "",
    "CITY": "Chatham",
    "ST": "MA",
    "LAT": 41.6807,
    "LNG": -69.9595
  },
  {
    "NAME": "",
    "CITY": "Provincetown",
    "ST": "MA",
    "LAT": 42.0565,
    "LNG": -70.1778
  },
  {
    "NAME": "",
    "CITY": "Boston",
    "ST": "MA",
    "LAT": 42.3601,
    "LNG": -71.0589
  },
  {
    "NAME": "",
    "CITY": "Salem",
    "ST": "MA",
    "LAT": 42.5195,
    "LNG": -70.8967
  },
  {
    "NAME": "",
    "CITY": "Gloucester",
    "ST": "MA",
    "LAT": 42.6159,
    "LNG": -70.662
  },
  {
    "NAME": "",
    "CITY": "Newburyport",
    "ST": "MA",
    "LAT": 42.812,
    "LNG": -70.8773
  },
  {
    "NAME": "",
    "CITY": "Hampton",
    "ST": "NH",
    "LAT": 42.9362,
    "LNG": -70.8467
  },
  {
    "NAME": "",
    "CITY": "Portsmouth",
    "ST": "NH",
    "LAT": 43.0718,
    "LNG": -70.7626
  },
  {
    "NAME": "",
    "CITY": "York",
    "ST": "NH",
    "LAT": 43.1337,
    "LNG": -70.6478
  },
  {
    "NAME": "",
    "CITY": "Kennebunkport",
    "ST": "ME",
    "LAT": 43.3584,
    "LNG": -70.4795
  },
  {
    "NAME": "",
    "CITY": "Old Orchard Beach",
    "ST": "ME",
    "LAT": 43.5176,
    "LNG": -70.3778
  },
  {
    "NAME": "",
    "CITY": "Scarborough",
    "ST": "ME",
    "LAT": 43.5781,
    "LNG": -70.3234
  },
  {
    "NAME": "",
    "CITY": "Portland",
    "ST": "ME",
    "LAT": 43.6591,
    "LNG": -70.2568
  },
  {
    "NAME": "",
    "CITY": "South Portland",
    "ST": "ME",
    "LAT": 43.6415,
    "LNG": -70.2409
  },
  {
    "NAME": "",
    "CITY": "Freeport",
    "ST": "ME",
    "LAT": 43.8568,
    "LNG": -70.1031
  },
  {
    "NAME": "",
    "CITY": "Brunswick",
    "ST": "ME",
    "LAT": 43.9145,
    "LNG": -69.9653
  },
  {
    "NAME": "",
    "CITY": "Bath",
    "ST": "ME",
    "LAT": 43.9151,
    "LNG": -69.8206
  },
  {
    "NAME": "",
    "CITY": "Boothbay Harbor",
    "ST": "ME",
    "LAT": 43.8518,
    "LNG": -69.6278
  },
  {
    "NAME": "",
    "CITY": "Rockland",
    "ST": "ME",
    "LAT": 44.1037,
    "LNG": -69.1089
  },
  {
    "NAME": "",
    "CITY": "Camden",
    "ST": "ME",
    "LAT": 44.2098,
    "LNG": -69.0648
  },
  {
    "NAME": "",
    "CITY": "Belfast",
    "ST": "ME",
    "LAT": 44.4256,
    "LNG": -69.0064
  },
  {
    "NAME": "",
    "CITY": "Ellsworth",
    "ST": "ME",
    "LAT": 44.5434,
    "LNG": -68.4195
  },
  {
    "NAME": "",
    "CITY": "Bar Harbor",
    "ST": "ME",
    "LAT": 44.3876,
    "LNG": -68.2039
  },
  {
    "NAME": "Brighton Beach Park",
    "CITY": "Duluth",
    "ST": "MN",
    "LAT": 46.7867,
    "LNG": -92.1005
  },
  {
    "NAME": "Gooseberry Falls State Park",
    "CITY": "Two Harbors",
    "ST": "MN",
    "LAT": 47.125,
    "LNG": -91.4667
  },
  {
    "NAME": "Tettegouche State Park",
    "CITY": "Silver Bay",
    "ST": "MN",
    "LAT": 47.3333,
    "LNG": -91.2
  },
  {
    "NAME": "Apostle Islands National Lakeshore",
    "CITY": "Bayfield",
    "ST": "WI",
    "LAT": 46.8066,
    "LNG": -90.8185
  },
  {
    "NAME": "Prentice Park",
    "CITY": "Ashland",
    "ST": "WI",
    "LAT": 46.5927,
    "LNG": -90.8838
  },
  {
    "NAME": "Blatnik Park",
    "CITY": "Superior",
    "ST": "WI",
    "LAT": 46.7208,
    "LNG": -92.1041
  },
  {
    "NAME": "Mackinac Island State Park",
    "CITY": "Mackinaw City",
    "ST": "MI",
    "LAT": 45.7767,
    "LNG": -84.7273
  },
  {
    "NAME": "Father Marquette National Memorial",
    "CITY": "St. Ignace",
    "ST": "MI",
    "LAT": 45.8667,
    "LNG": -84.7333
  },
  {
    "NAME": "Pictured Rocks National Lakeshore",
    "CITY": "Munising",
    "ST": "MI",
    "LAT": 46.4111,
    "LNG": -86.6493
  },
  {
    "NAME": "Orchard Beach State Park",
    "CITY": "Manistee",
    "ST": "MI",
    "LAT": 44.2445,
    "LNG": -86.3245
  },
  {
    "NAME": "Sleeping Bear Dunes National Lakeshore",
    "CITY": "Traverse City",
    "ST": "MI",
    "LAT": 44.7631,
    "LNG": -85.6206
  },
  {
    "NAME": "Lincoln Park",
    "CITY": "Chicago",
    "ST": "IL",
    "LAT": 41.8781,
    "LNG": -87.6298
  },
  {
    "NAME": "Lehmann Park",
    "CITY": "Evanston",
    "ST": "IL",
    "LAT": 42.0451,
    "LNG": -87.6876
  },
  {
    "NAME": "Washington Park",
    "CITY": "Waukegan",
    "ST": "IL",
    "LAT": 42.3636,
    "LNG": -87.8445
  },
  {
    "NAME": "Indiana Dunes State Park",
    "CITY": "Michigan City",
    "ST": "IN",
    "LAT": 41.7042,
    "LNG": -86.9031
  },
  {
    "NAME": "Warren Dunes State Park",
    "CITY": "New Buffalo",
    "ST": "MI",
    "LAT": 41.7953,
    "LNG": -86.7417
  },
  {
    "NAME": "Maumee Bay State Park",
    "CITY": "Toledo",
    "ST": "OH",
    "LAT": 41.6528,
    "LNG": -83.5379
  },
  {
    "NAME": "Cedar Point Campground",
    "CITY": "Sandusky",
    "ST": "OH",
    "LAT": 41.4489,
    "LNG": -82.7077
  },
  {
    "NAME": "Euclid Beach Park",
    "CITY": "Cleveland",
    "ST": "OH",
    "LAT": 41.5962,
    "LNG": -81.6944
  },
  {
    "NAME": "Presque Isle State Park",
    "CITY": "Erie",
    "ST": "PA",
    "LAT": 42.1292,
    "LNG": -80.0851
  },
  {
    "NAME": "Erie Bluffs State Park",
    "CITY": "North East",
    "ST": "PA",
    "LAT": 42.2131,
    "LNG": -79.8317
  },
  {
    "NAME": "Beaver Island State Park",
    "CITY": "Buffalo",
    "ST": "NY",
    "LAT": 42.8864,
    "LNG": -78.8784
  },
  {
    "NAME": "Selkirk Shores State Park",
    "CITY": "Oswego",
    "ST": "NY",
    "LAT": 43.4553,
    "LNG": -76.5105
  },
  {
    "NAME": "Westcott Beach State Park",
    "CITY": "Sackets Harbor",
    "ST": "NY",
    "LAT": 44.1286,
    "LNG": -76.3331
  },
  {
    "NAME": "",
    "CITY": "Duluth",
    "ST": "MN",
    "LAT": 46.7867,
    "LNG": -92.1005
  },
  {
    "NAME": "",
    "CITY": "Superior",
    "ST": "WI",
    "LAT": 46.7208,
    "LNG": -92.1041
  },
  {
    "NAME": "",
    "CITY": "Ashland",
    "ST": "WI",
    "LAT": 46.5927,
    "LNG": -90.8838
  },
  {
    "NAME": "",
    "CITY": "Bayfield",
    "ST": "WI",
    "LAT": 46.8066,
    "LNG": -90.8185
  },
  {
    "NAME": "",
    "CITY": "Washburn",
    "ST": "WI",
    "LAT": 46.6744,
    "LNG": -90.8938
  },
  {
    "NAME": "",
    "CITY": "Marquette",
    "ST": "MI",
    "LAT": 46.5436,
    "LNG": -87.3954
  },
  {
    "NAME": "",
    "CITY": "Munising",
    "ST": "MI",
    "LAT": 46.4111,
    "LNG": -86.6493
  },
  {
    "NAME": "",
    "CITY": "Manistique",
    "ST": "MI",
    "LAT": 45.9569,
    "LNG": -86.2465
  },
  {
    "NAME": "",
    "CITY": "Escanaba",
    "ST": "MI",
    "LAT": 45.7458,
    "LNG": -87.0637
  },
  {
    "NAME": "",
    "CITY": "Menominee",
    "ST": "MI",
    "LAT": 45.1075,
    "LNG": -87.614
  },
  {
    "NAME": "",
    "CITY": "Green Bay",
    "ST": "WI",
    "LAT": 44.5192,
    "LNG": -88.0198
  },
  {
    "NAME": "",
    "CITY": "Sturgeon Bay",
    "ST": "WI",
    "LAT": 44.8342,
    "LNG": -87.377
  },
  {
    "NAME": "",
    "CITY": "Algoma",
    "ST": "WI",
    "LAT": 44.6069,
    "LNG": -87.4345
  },
  {
    "NAME": "",
    "CITY": "Kewaunee",
    "ST": "WI",
    "LAT": 44.4578,
    "LNG": -87.5045
  },
  {
    "NAME": "",
    "CITY": "Two Rivers",
    "ST": "WI",
    "LAT": 44.1536,
    "LNG": -87.5695
  },
  {
    "NAME": "",
    "CITY": "Manitowoc",
    "ST": "WI",
    "LAT": 44.0886,
    "LNG": -87.6576
  },
  {
    "NAME": "",
    "CITY": "Sheboygan",
    "ST": "WI",
    "LAT": 43.7508,
    "LNG": -87.7145
  },
  {
    "NAME": "",
    "CITY": "Port Washington",
    "ST": "WI",
    "LAT": 43.3889,
    "LNG": -87.8687
  },
  {
    "NAME": "",
    "CITY": "Milwaukee",
    "ST": "WI",
    "LAT": 43.0389,
    "LNG": -87.9065
  },
  {
    "NAME": "",
    "CITY": "Racine",
    "ST": "WI",
    "LAT": 42.7261,
    "LNG": -87.7828
  },
  {
    "NAME": "",
    "CITY": "Kenosha",
    "ST": "WI",
    "LAT": 42.5847,
    "LNG": -87.8212
  },
  {
    "NAME": "",
    "CITY": "Waukegan",
    "ST": "IL",
    "LAT": 42.3636,
    "LNG": -87.8445
  },
  {
    "NAME": "",
    "CITY": "North Chicago",
    "ST": "IL",
    "LAT": 42.3239,
    "LNG": -87.8412
  },
  {
    "NAME": "",
    "CITY": "Lake Forest",
    "ST": "IL",
    "LAT": 42.2586,
    "LNG": -87.8406
  },
  {
    "NAME": "",
    "CITY": "Highland Park",
    "ST": "IL",
    "LAT": 42.1817,
    "LNG": -87.8003
  },
  {
    "NAME": "",
    "CITY": "Evanston",
    "ST": "IL",
    "LAT": 42.0451,
    "LNG": -87.6876
  },
  {
    "NAME": "",
    "CITY": "Chicago",
    "ST": "IL",
    "LAT": 41.8781,
    "LNG": -87.6298
  },
  {
    "NAME": "",
    "CITY": "Whiting",
    "ST": "IN",
    "LAT": 41.6831,
    "LNG": -87.4948
  },
  {
    "NAME": "",
    "CITY": "East Chicago",
    "ST": "IN",
    "LAT": 41.6389,
    "LNG": -87.4523
  },
  {
    "NAME": "",
    "CITY": "Gary",
    "ST": "IN",
    "LAT": 41.5934,
    "LNG": -87.3464
  },
  {
    "NAME": "",
    "CITY": "Michigan City",
    "ST": "IN",
    "LAT": 41.7042,
    "LNG": -86.9031
  },
  {
    "NAME": "",
    "CITY": "New Buffalo",
    "ST": "MI",
    "LAT": 41.7953,
    "LNG": -86.7417
  },
  {
    "NAME": "",
    "CITY": "St. Joseph",
    "ST": "MI",
    "LAT": 42.1098,
    "LNG": -86.4853
  },
  {
    "NAME": "",
    "CITY": "Benton Harbor",
    "ST": "MI",
    "LAT": 42.1164,
    "LNG": -86.4545
  },
  {
    "NAME": "",
    "CITY": "South Haven",
    "ST": "MI",
    "LAT": 42.4031,
    "LNG": -86.2756
  },
  {
    "NAME": "",
    "CITY": "Saugatuck",
    "ST": "MI",
    "LAT": 42.6536,
    "LNG": -86.2028
  },
  {
    "NAME": "",
    "CITY": "Holland",
    "ST": "MI",
    "LAT": 42.7875,
    "LNG": -86.1089
  },
  {
    "NAME": "",
    "CITY": "Grand Haven",
    "ST": "MI",
    "LAT": 43.0631,
    "LNG": -86.2284
  },
  {
    "NAME": "",
    "CITY": "Muskegon",
    "ST": "MI",
    "LAT": 43.2342,
    "LNG": -86.2484
  },
  {
    "NAME": "",
    "CITY": "Whitehall",
    "ST": "MI",
    "LAT": 43.4064,
    "LNG": -86.3517
  },
  {
    "NAME": "",
    "CITY": "Pentwater",
    "ST": "MI",
    "LAT": 43.78,
    "LNG": -86.4317
  },
  {
    "NAME": "",
    "CITY": "Ludington",
    "ST": "MI",
    "LAT": 43.9553,
    "LNG": -86.4523
  },
  {
    "NAME": "",
    "CITY": "Manistee",
    "ST": "MI",
    "LAT": 44.2445,
    "LNG": -86.3245
  },
  {
    "NAME": "",
    "CITY": "Frankfort",
    "ST": "MI",
    "LAT": 44.6353,
    "LNG": -86.2359
  },
  {
    "NAME": "",
    "CITY": "Traverse City",
    "ST": "MI",
    "LAT": 44.7631,
    "LNG": -85.6206
  },
  {
    "NAME": "",
    "CITY": "Charlevoix",
    "ST": "MI",
    "LAT": 45.3175,
    "LNG": -85.2584
  },
  {
    "NAME": "",
    "CITY": "Petoskey",
    "ST": "MI",
    "LAT": 45.3736,
    "LNG": -84.9553
  },
  {
    "NAME": "",
    "CITY": "Mackinaw City",
    "ST": "MI",
    "LAT": 45.7767,
    "LNG": -84.7273
  },
  {
    "NAME": "",
    "CITY": "Cheboygan",
    "ST": "MI",
    "LAT": 45.6467,
    "LNG": -84.4756
  },
  {
    "NAME": "",
    "CITY": "Alpena",
    "ST": "MI",
    "LAT": 45.0617,
    "LNG": -83.4327
  },
  {
    "NAME": "",
    "CITY": "Rogers City",
    "ST": "MI",
    "LAT": 45.42,
    "LNG": -83.8153
  },
  {
    "NAME": "",
    "CITY": "Bay City",
    "ST": "MI",
    "LAT": 43.5945,
    "LNG": -83.8889
  },
  {
    "NAME": "",
    "CITY": "Saginaw",
    "ST": "MI",
    "LAT": 43.4195,
    "LNG": -83.9508
  },
  {
    "NAME": "",
    "CITY": "Port Huron",
    "ST": "MI",
    "LAT": 42.9709,
    "LNG": -82.4249
  },
  {
    "NAME": "",
    "CITY": "Algonac",
    "ST": "MI",
    "LAT": 42.6161,
    "LNG": -82.533
  },
  {
    "NAME": "",
    "CITY": "Marine City",
    "ST": "MI",
    "LAT": 42.7117,
    "LNG": -82.4896
  },
  {
    "NAME": "",
    "CITY": "St. Clair",
    "ST": "MI",
    "LAT": 42.82,
    "LNG": -82.4885
  },
  {
    "NAME": "",
    "CITY": "Sarnia",
    "ST": "MI",
    "LAT": 43,
    "LNG": -82.4
  },
  {
    "NAME": "",
    "CITY": "Toledo",
    "ST": "OH",
    "LAT": 41.6528,
    "LNG": -83.5379
  },
  {
    "NAME": "",
    "CITY": "Sandusky",
    "ST": "OH",
    "LAT": 41.4489,
    "LNG": -82.7077
  },
  {
    "NAME": "",
    "CITY": "Huron",
    "ST": "OH",
    "LAT": 41.3953,
    "LNG": -82.5577
  },
  {
    "NAME": "",
    "CITY": "Lorain",
    "ST": "OH",
    "LAT": 41.4528,
    "LNG": -82.1824
  },
  {
    "NAME": "",
    "CITY": "Cleveland",
    "ST": "OH",
    "LAT": 41.4993,
    "LNG": -81.6944
  },
  {
    "NAME": "",
    "CITY": "Euclid",
    "ST": "OH",
    "LAT": 41.5962,
    "LNG": -81.5187
  },
  {
    "NAME": "",
    "CITY": "Willoughby",
    "ST": "OH",
    "LAT": 41.6398,
    "LNG": -81.4065
  },
  {
    "NAME": "",
    "CITY": "Mentor",
    "ST": "OH",
    "LAT": 41.6662,
    "LNG": -81.3437
  },
  {
    "NAME": "",
    "CITY": "Painesville",
    "ST": "OH",
    "LAT": 41.7245,
    "LNG": -81.2456
  },
  {
    "NAME": "",
    "CITY": "Ashtabula",
    "ST": "OH",
    "LAT": 41.865,
    "LNG": -80.7898
  },
  {
    "NAME": "",
    "CITY": "Conneaut",
    "ST": "OH",
    "LAT": 41.9475,
    "LNG": -80.5545
  },
  {
    "NAME": "",
    "CITY": "Erie",
    "ST": "PA",
    "LAT": 42.1292,
    "LNG": -80.0851
  },
  {
    "NAME": "",
    "CITY": "North East",
    "ST": "PA",
    "LAT": 42.2131,
    "LNG": -79.8317
  },
  {
    "NAME": "",
    "CITY": "Dunkirk",
    "ST": "NY",
    "LAT": 42.4795,
    "LNG": -79.3339
  },
  {
    "NAME": "",
    "CITY": "Silver Creek",
    "ST": "NY",
    "LAT": 42.5437,
    "LNG": -79.1656
  },
  {
    "NAME": "",
    "CITY": "Fredonia",
    "ST": "NY",
    "LAT": 42.4403,
    "LNG": -79.3328
  },
  {
    "NAME": "",
    "CITY": "Portland",
    "ST": "NY",
    "LAT": 42.3701,
    "LNG": -79.4784
  },
  {
    "NAME": "",
    "CITY": "Westfield",
    "ST": "NY",
    "LAT": 42.3201,
    "LNG": -79.575
  },
  {
    "NAME": "",
    "CITY": "Ripley",
    "ST": "NY",
    "LAT": 42.2606,
    "LNG": -79.7128
  },
  {
    "NAME": "",
    "CITY": "Barcelona",
    "ST": "NY",
    "LAT": 42.3303,
    "LNG": -79.5953
  },
  {
    "NAME": "",
    "CITY": "Brocton",
    "ST": "NY",
    "LAT": 42.3953,
    "LNG": -79.4386
  },
  {
    "NAME": "",
    "CITY": "Dunkirk",
    "ST": "NY",
    "LAT": 42.4795,
    "LNG": -79.3339
  },
  {
    "NAME": "",
    "CITY": "Oswego",
    "ST": "NY",
    "LAT": 43.4553,
    "LNG": -76.5105
  },
  {
    "NAME": "",
    "CITY": "Mexico",
    "ST": "NY",
    "LAT": 43.4656,
    "LNG": -76.2283
  },
  {
    "NAME": "",
    "CITY": "Pulaski",
    "ST": "NY",
    "LAT": 43.5656,
    "LNG": -76.1275
  },
  {
    "NAME": "",
    "CITY": "Sackets Harbor",
    "ST": "NY",
    "LAT": 43.9467,
    "LNG": -76.1194
  },
  {
    "NAME": "",
    "CITY": "Cape Vincent",
    "ST": "NY",
    "LAT": 44.1286,
    "LNG": -76.3331
  },
  {
    "NAME": "",
    "CITY": "Clayton",
    "ST": "NY",
    "LAT": 44.2403,
    "LNG": -76.0847
  },
  {
    "NAME": "",
    "CITY": "Alexandria Bay",
    "ST": "NY",
    "LAT": 44.3356,
    "LNG": -75.918
  },
  {
    "NAME": "Gleason Boat Ramp",
    "CITY": "Portland",
    "ST": "OR",
    "LAT": 45.6125,
    "LNG": -122.7592
  },
  {
    "NAME": "Chinook Landing Boat Ramp",
    "CITY": "Portland",
    "ST": "OR",
    "LAT": 45.5833,
    "LNG": -122.65
  },
  {
    "NAME": "Eastside Boat Ramp",
    "CITY": "Coos Bay",
    "ST": "OR",
    "LAT": 43.3661,
    "LNG": -124.2167
  },
  {
    "NAME": "Hungry Harbor Boat Launch",
    "CITY": "Pacific City",
    "ST": "OR",
    "LAT": 45.2157,
    "LNG": -123.9711
  },
  {
    "NAME": "Kilchis River Boat Launch",
    "CITY": "Tillamook",
    "ST": "OR",
    "LAT": 45.5389,
    "LNG": -123.7841
  },
  {
    "NAME": "Lake Lytle Boat Launch",
    "CITY": "Rockaway Beach",
    "ST": "OR",
    "LAT": 45.6273,
    "LNG": -123.9386
  },
  {
    "NAME": "Little Nestucca Boat Launch",
    "CITY": "Pacific City",
    "ST": "OR",
    "LAT": 45.1593,
    "LNG": -123.9362
  },
  {
    "NAME": "Mapes Creek Boat Launch",
    "CITY": "Tillamook",
    "ST": "OR",
    "LAT": 45.5197,
    "LNG": -123.8282
  },
  {
    "NAME": "Pacific City Boat Launch",
    "CITY": "Pacific City",
    "ST": "OR",
    "LAT": 45.1964,
    "LNG": -123.9666
  },
  {
    "NAME": "Parks Landing Boat Launch",
    "CITY": "Tillamook",
    "ST": "OR",
    "LAT": 45.4949,
    "LNG": -123.846
  },
  {
    "NAME": "Roy Creek Boat Launch",
    "CITY": "Nehalem",
    "ST": "OR",
    "LAT": 45.7026,
    "LNG": -123.8396
  },
  {
    "NAME": "Sollie Smith Boat Launch",
    "CITY": "Tillamook",
    "ST": "OR",
    "LAT": 45.4767,
    "LNG": -123.808
  },
  {
    "NAME": "Steiner Boat Launch",
    "CITY": "Tillamook",
    "ST": "OR",
    "LAT": 45.4269,
    "LNG": -123.8183
  },
  {
    "NAME": "",
    "CITY": "Astoria",
    "ST": "OR",
    "LAT": 46.1879,
    "LNG": -123.8313
  },
  {
    "NAME": "",
    "CITY": "Warrenton",
    "ST": "OR",
    "LAT": 46.1634,
    "LNG": -123.9293
  },
  {
    "NAME": "",
    "CITY": "Gearhart",
    "ST": "OR",
    "LAT": 46.0257,
    "LNG": -123.9068
  },
  {
    "NAME": "",
    "CITY": "Seaside",
    "ST": "OR",
    "LAT": 45.9932,
    "LNG": -123.9232
  },
  {
    "NAME": "",
    "CITY": "Cannon Beach",
    "ST": "OR",
    "LAT": 45.8918,
    "LNG": -123.9615
  },
  {
    "NAME": "",
    "CITY": "Manzanita",
    "ST": "OR",
    "LAT": 45.7182,
    "LNG": -123.9358
  },
  {
    "NAME": "",
    "CITY": "Nehalem",
    "ST": "OR",
    "LAT": 45.7165,
    "LNG": -123.8798
  },
  {
    "NAME": "",
    "CITY": "Wheeler",
    "ST": "OR",
    "LAT": 45.6837,
    "LNG": -123.883
  },
  {
    "NAME": "",
    "CITY": "Rockaway Beach",
    "ST": "OR",
    "LAT": 45.6143,
    "LNG": -123.9392
  },
  {
    "NAME": "",
    "CITY": "Garibaldi",
    "ST": "OR",
    "LAT": 45.5606,
    "LNG": -123.9061
  },
  {
    "NAME": "",
    "CITY": "Bay City",
    "ST": "OR",
    "LAT": 45.5215,
    "LNG": -123.8855
  },
  {
    "NAME": "",
    "CITY": "Tillamook",
    "ST": "OR",
    "LAT": 45.4551,
    "LNG": -123.8118
  },
  {
    "NAME": "",
    "CITY": "Pacific City",
    "ST": "OR",
    "LAT": 45.1964,
    "LNG": -123.9666
  },
  {
    "NAME": "",
    "CITY": "Neskowin",
    "ST": "OR",
    "LAT": 45.1052,
    "LNG": -123.9643
  },
  {
    "NAME": "",
    "CITY": "Lincoln City",
    "ST": "OR",
    "LAT": 44.9695,
    "LNG": -124.0104
  },
  {
    "NAME": "",
    "CITY": "Depoe Bay",
    "ST": "OR",
    "LAT": 44.8051,
    "LNG": -124.063
  },
  {
    "NAME": "",
    "CITY": "Newport",
    "ST": "OR",
    "LAT": 44.6368,
    "LNG": -124.0532
  },
  {
    "NAME": "",
    "CITY": "Toledo",
    "ST": "OR",
    "LAT": 44.6212,
    "LNG": -123.9377
  },
  {
    "NAME": "",
    "CITY": "Waldport",
    "ST": "OR",
    "LAT": 44.4268,
    "LNG": -124.0683
  },
  {
    "NAME": "",
    "CITY": "Yachats",
    "ST": "OR",
    "LAT": 44.3148,
    "LNG": -124.1038
  },
  {
    "NAME": "",
    "CITY": "Florence",
    "ST": "OR",
    "LAT": 44.0121,
    "LNG": -124.0998
  },
  {
    "NAME": "",
    "CITY": "Reedsport",
    "ST": "OR",
    "LAT": 43.7023,
    "LNG": -124.0965
  },
  {
    "NAME": "",
    "CITY": "North Bend",
    "ST": "OR",
    "LAT": 43.4065,
    "LNG": -124.2243
  },
  {
    "NAME": "",
    "CITY": "Coos Bay",
    "ST": "OR",
    "LAT": 43.3665,
    "LNG": -124.2179
  },
  {
    "NAME": "",
    "CITY": "Charleston",
    "ST": "OR",
    "LAT": 43.3429,
    "LNG": -124.3172
  },
  {
    "NAME": "",
    "CITY": "Bandon",
    "ST": "OR",
    "LAT": 43.119,
    "LNG": -124.4087
  },
  {
    "NAME": "",
    "CITY": "Port Orford",
    "ST": "OR",
    "LAT": 42.7412,
    "LNG": -124.4981
  },
  {
    "NAME": "",
    "CITY": "Gold Beach",
    "ST": "OR",
    "LAT": 42.4065,
    "LNG": -124.4215
  },
  {
    "NAME": "",
    "CITY": "Brookings",
    "ST": "OR",
    "LAT": 42.0548,
    "LNG": -124.282
  },
  {
    "NAME": "WEST HAVEN YACHT CLUB",
    "CITY": "WEST HAVEN",
    "ST": "CT",
    "LAT": 41.27117,
    "LNG": -72.93493
  },
  {
    "NAME": "ELIHU ISLAND BRIDGE",
    "CITY": "STONINGTON",
    "ST": "CT",
    "LAT": 41.34,
    "LNG": -71.88833
  },
  {
    "NAME": "RAGGED ROCK MARINA",
    "CITY": "OLD SAYBROOK",
    "ST": "CT",
    "LAT": 41.31162,
    "LNG": -72.35822
  },
  {
    "NAME": "ORLEANS TOWN LANDING",
    "CITY": "ORLEANS",
    "ST": "MA",
    "LAT": 41.78807,
    "LNG": -69.98595
  },
  {
    "NAME": "TAYLORS POINT SH SITE",
    "CITY": "BOURNE",
    "ST": "MA",
    "LAT": 41.74512,
    "LNG": -70.62132
  },
  {
    "NAME": "GRAYS BEACH (A.K.A. BASS HOLE)",
    "CITY": "YARMOUTH PORT",
    "ST": "MA",
    "LAT": 41.72293,
    "LNG": -70.23542
  },
  {
    "NAME": "MADAKET MARINE",
    "CITY": "NANTUCKET",
    "ST": "MA",
    "LAT": 41.2794,
    "LNG": -70.19097
  },
  {
    "NAME": "SOMERS POINT MARINA",
    "CITY": "SOMERS POINT",
    "ST": "NJ",
    "LAT": 39.31015,
    "LNG": -74.59517
  },
  {
    "NAME": "LLOYD'S OYSTER HOUSE",
    "CITY": "SHALLOTTE POINT",
    "ST": "NC",
    "LAT": 33.91975,
    "LNG": -78.37221
  },
  {
    "NAME": "BREWER'S SAKONNET MARINA (NORTH)",
    "CITY": "PORTSMOUTH",
    "ST": "RI",
    "LAT": 41.64483,
    "LNG": -71.21918
  },
  {
    "NAME": "WILLOUGHBY HARBOR MARINA",
    "CITY": "NORFOLK",
    "ST": "VA",
    "LAT": 36.96585,
    "LNG": -76.29503
  },
  {
    "NAME": "VENICE MARINA",
    "CITY": "SHEEPSHEAD BAY",
    "ST": "NY",
    "LAT": 40.58505,
    "LNG": -73.92673
  },
  {
    "NAME": "WEST MEADOW BEACH",
    "CITY": "STONY BROOK",
    "ST": "NY",
    "LAT": 40.94175,
    "LNG": -73.14442
  },
  {
    "NAME": "White Hall Boat Landing",
    "CITY": "Beaufort",
    "ST": "SC",
    "LAT": 32.4204,
    "LNG": -80.66228
  },
  {
    "NAME": "BOLD POINT PARK",
    "CITY": "EAST PROVIDENCE",
    "ST": "RI",
    "LAT": 41.81522,
    "LNG": -71.39093
  },
  {
    "NAME": "STAR ISLAND YACHT CLUB",
    "CITY": "MONTAUK",
    "ST": "NY",
    "LAT": 41.07147,
    "LNG": -71.93505
  },
  {
    "NAME": "MORGAN MEMORIAL PARK",
    "CITY": "GLEN COVE",
    "ST": "NY",
    "LAT": 40.86383,
    "LNG": -73.65565
  },
  {
    "NAME": "WICKFORD LANDING & WICKFORD BRIDGE",
    "CITY": "KINGSTOWN",
    "ST": "RI",
    "LAT": 41.56885,
    "LNG": -71.452
  },
  {
    "NAME": "Murrells Inlet Public Landing",
    "CITY": "Murrells Inlet",
    "ST": "SC",
    "LAT": 33.55522,
    "LNG": -79.0344
  },
  {
    "NAME": "Steamboat Landing",
    "CITY": "Edisto Island",
    "ST": "SC",
    "LAT": 32.60222,
    "LNG": -80.29305
  },
  {
    "NAME": "TOWN OF BAYVILLE CREEK BEACH MARINA",
    "CITY": "BAYVILLE",
    "ST": "NY",
    "LAT": 40.89992,
    "LNG": -73.56625
  },
  {
    "NAME": "WEEKAPAUG BEACH-NOYES POINT",
    "CITY": "WESTERLY",
    "ST": "RI",
    "LAT": 41.32672,
    "LNG": -71.75325
  },
  {
    "NAME": "PONQUOGE POWER",
    "CITY": "HAMPTON BAYS",
    "ST": "NY",
    "LAT": 40.86008,
    "LNG": -72.52588
  },
  {
    "NAME": "COTTON BAYOU BEACH ACCESS",
    "CITY": "ORANGE BEACH",
    "ST": "AL",
    "LAT": 30.25507,
    "LNG": -87.6423
  },
  {
    "NAME": "HAULOVER CANAL SOUTH/BAIR'S COVE",
    "CITY": "MIMS",
    "ST": "FL",
    "LAT": 28.73313,
    "LNG": -80.75625
  },
  {
    "NAME": "WALKER'S COON KEY MARINA",
    "CITY": "GOODLAND",
    "ST": "FL",
    "LAT": 25.9217,
    "LNG": -81.6448
  },
  {
    "NAME": "BLUE CYPRESS PARK AND PIER",
    "CITY": "JACKSONVILLE",
    "ST": "FL",
    "LAT": 30.37357,
    "LNG": -81.61758
  },
  {
    "NAME": "SHANDS PIER & BOAT RAMP",
    "CITY": "GREEN COVE SPRINGS",
    "ST": "FL",
    "LAT": 29.98047,
    "LNG": -81.63505
  },
  {
    "NAME": "DALE WIMBROW PARK",
    "CITY": "ROSELAND",
    "ST": "FL",
    "LAT": 27.81,
    "LNG": -80.5045
  },
  {
    "NAME": "GARDEN COVE MARINA",
    "CITY": "KEY LARGO",
    "ST": "FL",
    "LAT": 25.17043,
    "LNG": -80.37157
  },
  {
    "NAME": "BISHOPS HARBOR",
    "CITY": "PALMETTO",
    "ST": "FL",
    "LAT": 27.60105,
    "LNG": -82.55195
  },
  {
    "NAME": "STEINHATCHEE RIVER INN AND MARINA",
    "CITY": "STEINHATCHEE",
    "ST": "FL",
    "LAT": 29.66785,
    "LNG": -83.3754
  },
  {
    "NAME": "FORT BOAT RAMP",
    "CITY": "ST MARKS",
    "ST": "FL",
    "LAT": 30.15193,
    "LNG": -84.20993
  },
  {
    "NAME": "Ala Wai Harbor",
    "CITY": "Honolulu",
    "ST": "HI",
    "LAT": 21.28387,
    "LNG": -157.84057
  },
  {
    "NAME": "Olowalu",
    "CITY": "Olowalu",
    "ST": "HI",
    "LAT": 20.82633,
    "LNG": -156.63312
  },
  {
    "NAME": "DE POPES LAUNCH",
    "CITY": "VIOLET",
    "ST": "LA",
    "LAT": 29.8987,
    "LNG": -89.90052
  },
  {
    "NAME": "PUENTE DOS HERMANOS",
    "CITY": "SAN JUAN",
    "ST": "PR",
    "LAT": 18.45992,
    "LNG": -66.08617
  },
  {
    "NAME": "ATUNERAS- BUMBLEBEE Y STAR KIST",
    "CITY": "MAYAGUEZ",
    "ST": "PR",
    "LAT": 18.22188,
    "LNG": -67.16877
  },
  {
    "NAME": "DOGFISH BAR FISHING ACCESS SITE",
    "CITY": "AQUINNAH",
    "ST": "MA",
    "LAT": 41.35477,
    "LNG": -70.81175
  },
  {
    "NAME": "BROOKS BRIDGE MARINA",
    "CITY": "FORT WALTON BEACH",
    "ST": "FL",
    "LAT": 30.40018,
    "LNG": -86.59918
  },
  {
    "NAME": "DUNEDIN CAUSEWAY-WEST HALF",
    "CITY": "DUNEDIN",
    "ST": "FL",
    "LAT": 28.05987,
    "LNG": -82.81228
  },
  {
    "NAME": "MAR MARINE",
    "CITY": "TARPON SPRINGS",
    "ST": "FL",
    "LAT": 28.16345,
    "LNG": -82.77533
  },
  {
    "NAME": "FALMOUTH MARINE YACHT YARD",
    "CITY": "FALMOUTH",
    "ST": "MA",
    "LAT": 41.54673,
    "LNG": -70.60453
  },
  {
    "NAME": "Eddie Pinto's Marina",
    "CITY": "New Orleans",
    "ST": "LA",
    "LAT": 29.99117,
    "LNG": -89.94235
  },
  {
    "NAME": "SO. BENSON MARINA/ HJM FISHING PIER",
    "CITY": "FAIRFIELD",
    "ST": "CT",
    "LAT": 41.14407,
    "LNG": -73.23725
  },
  {
    "NAME": "ST MARY'S BY THE SEA",
    "CITY": "BRIDGEPORT",
    "ST": "CT",
    "LAT": 41.144,
    "LNG": -73.23285
  },
  {
    "NAME": "BLACK ROCK YACHT CLUB",
    "CITY": "BRIDGEPORT",
    "ST": "CT",
    "LAT": 41.14672,
    "LNG": -73.22453
  },
  {
    "NAME": "FAYERWEATHER YACHT CLUB AND BREWSTER ST LAUNCH",
    "CITY": "BRIDGEPORT",
    "ST": "CT",
    "LAT": 41.15337,
    "LNG": -73.21725
  },
  {
    "NAME": "CEDAR MARINA",
    "CITY": "BRIDGEPORT",
    "ST": "CT",
    "LAT": 41.15908,
    "LNG": -73.21155
  },
  {
    "NAME": "SEASIDE PARK",
    "CITY": "BRIDGEPORT",
    "ST": "CT",
    "LAT": 41.15989,
    "LNG": -73.18803
  },
  {
    "NAME": "BREEZY POINT/POWER PLANT WARM WATER DISCHARGE",
    "CITY": "BRIDGEPORT",
    "ST": "CT",
    "LAT": 41.165,
    "LNG": -73.18447
  },
  {
    "NAME": "HITCHCOCK MARINA",
    "CITY": "BRIDGEPORT",
    "ST": "CT",
    "LAT": 41.175,
    "LNG": -73.18167
  },
  {
    "NAME": "PEQUONNOCK YACHT CLUB",
    "CITY": "BRIDGEPORT",
    "ST": "CT",
    "LAT": 41.175,
    "LNG": -73.18167
  },
  {
    "NAME": "RIVERSIDE MARINA",
    "CITY": "BRIDGEPORT",
    "ST": "CT",
    "LAT": 41.175,
    "LNG": -73.18167
  },
  {
    "NAME": "DOLPHIN'S COVE MARINA",
    "CITY": "BRIDGEPORT",
    "ST": "CT",
    "LAT": 41.1695,
    "LNG": -73.17108
  },
  {
    "NAME": "PLEASURE BEACH",
    "CITY": "BRIDGEPORT",
    "ST": "CT",
    "LAT": 41.16413,
    "LNG": -73.16748
  },
  {
    "NAME": "MIAMOGUE YACHT CLUB",
    "CITY": "BRIDGEPORT",
    "ST": "CT",
    "LAT": 41.16792,
    "LNG": -73.16563
  },
  {
    "NAME": "EAST END YACHT CLUB",
    "CITY": "BRIDGEPORT",
    "ST": "CT",
    "LAT": 41.17323,
    "LNG": -73.16185
  },
  {
    "NAME": "LONG BEACH",
    "CITY": "STRATFORD",
    "ST": "CT",
    "LAT": 41.15028,
    "LNG": -73.14035
  },
  {
    "NAME": "LORDSHIP COASTAL GRASSLANDS",
    "CITY": "STRATFORD",
    "ST": "CT",
    "LAT": 41.15343,
    "LNG": -73.10352
  },
  {
    "NAME": "SHORT BEACH PARK",
    "CITY": "STRATFORD",
    "ST": "CT",
    "LAT": 41.16503,
    "LNG": -73.10913
  },
  {
    "NAME": "BEACON POINT MARINE",
    "CITY": "SHELTON",
    "ST": "CT",
    "LAT": 41.2716,
    "LNG": -73.09023
  },
  {
    "NAME": "BIRDSEYE ST. BOAT LAUNCH/FRED KAESER FISHING PIER",
    "CITY": "STRATFORD",
    "ST": "CT",
    "LAT": 41.17933,
    "LNG": -73.12478
  },
  {
    "NAME": "POOTATUCK YACHT CLUB",
    "CITY": "STRATFORD",
    "ST": "CT",
    "LAT": 41.19045,
    "LNG": -73.12183
  },
  {
    "NAME": "BOND'S DOCK/FISHING PIER",
    "CITY": "STRATFORD",
    "ST": "CT",
    "LAT": 41.18607,
    "LNG": -73.12273
  },
  {
    "NAME": "BROWN'S BOAT WORKS",
    "CITY": "STRATFORD",
    "ST": "CT",
    "LAT": 41.18662,
    "LNG": -73.1238
  },
  {
    "NAME": "BREWER STRATFORD MARINA",
    "CITY": "STRATFORD",
    "ST": "CT",
    "LAT": 41.18915,
    "LNG": -73.12262
  },
  {
    "NAME": "DOCK MARINA FISHING PIER",
    "CITY": "STRATFORD",
    "ST": "CT",
    "LAT": 41.20098,
    "LNG": -73.11193
  },
  {
    "NAME": "BRIDGEBROOK MARINA",
    "CITY": "WESTPORT",
    "ST": "CT",
    "LAT": 41.12458,
    "LNG": -73.37062
  },
  {
    "NAME": "W. BEACH AND STAMFORD BOAT LAUNCH",
    "CITY": "STAMFORD",
    "ST": "CT",
    "LAT": 41.0384,
    "LNG": -73.52285
  },
  {
    "NAME": "RIVER CLUB OF GREENWICH",
    "CITY": "GREENWICH",
    "ST": "CT",
    "LAT": 41.03833,
    "LNG": -73.59333
  },
  {
    "NAME": "RIVERSCAPE MARINA",
    "CITY": "COS COB",
    "ST": "CT",
    "LAT": 41.03507,
    "LNG": -73.59437
  },
  {
    "NAME": "Greenwich Town Marina",
    "CITY": "GREENWICH",
    "ST": "CT",
    "LAT": 41.03833,
    "LNG": -73.59333
  },
  {
    "NAME": "MIANUS RIVER BOAT AND YACHT CLUB",
    "CITY": "COS COB",
    "ST": "CT",
    "LAT": 41.03157,
    "LNG": -73.59627
  },
  {
    "NAME": "BYRAM PARK GREENWICH MUNICIPAL BOAT BASIN",
    "CITY": "GREENWICH",
    "ST": "CT",
    "LAT": 41.00345,
    "LNG": -73.64612
  },
  {
    "NAME": "GRASS ISLAND MARINA",
    "CITY": "GREENWICH",
    "ST": "CT",
    "LAT": 41.01473,
    "LNG": -73.62547
  },
  {
    "NAME": "ROGER SHERMAN BALDWIN PARK",
    "CITY": "GREENWICH",
    "ST": "CT",
    "LAT": 41.01787,
    "LNG": -73.62585
  },
  {
    "NAME": "GREENWICH TOWN PIER",
    "CITY": "GREENWICH",
    "ST": "CT",
    "LAT": 41.01118,
    "LNG": -73.62225
  },
  {
    "NAME": "INDIAN HARBOR YACHT CLUB",
    "CITY": "GREENWICH",
    "ST": "CT",
    "LAT": 41.0116,
    "LNG": -73.62232
  },
  {
    "NAME": "GREENWICH WATER CLUB/BEACON POINT MARINA",
    "CITY": "COS COB",
    "ST": "CT",
    "LAT": 41.03737,
    "LNG": -73.5938
  },
  {
    "NAME": "MACKENZIE MARINE SERVICES",
    "CITY": "COS COB",
    "ST": "CT",
    "LAT": 41.03955,
    "LNG": -73.59142
  },
  {
    "NAME": "MIANUS MARINE",
    "CITY": "GREENWICH",
    "ST": "CT",
    "LAT": 41.03833,
    "LNG": -73.59333
  },
  {
    "NAME": "ALMUNDSEN'S MARINA",
    "CITY": "GREENWICH",
    "ST": "CT",
    "LAT": 41.03833,
    "LNG": -73.59333
  },
  {
    "NAME": "DRENCKHAHN BOAT BASIN",
    "CITY": "COS COB",
    "ST": "CT",
    "LAT": 41.04083,
    "LNG": -73.5906
  },
  {
    "NAME": "GREENWICH POINT PARK",
    "CITY": "GREENWICH",
    "ST": "CT",
    "LAT": 41.00358,
    "LNG": -73.57855
  },
  {
    "NAME": "JOHN J. BOCCUZZI PARK",
    "CITY": "STAMFORD",
    "ST": "CT",
    "LAT": 41.03342,
    "LNG": -73.54497
  },
  {
    "NAME": "SAFE HARBOR YACHT HAVEN MAIN YARD",
    "CITY": "STAMFORD",
    "ST": "CT",
    "LAT": 41.0355,
    "LNG": -73.53173
  },
  {
    "NAME": "KOSCIUSZKO PARK/DYKE PARK",
    "CITY": "STAMFORD",
    "ST": "CT",
    "LAT": 41.03523,
    "LNG": -73.538
  },
  {
    "NAME": "SHIPPAN POINT ACCESS #1",
    "CITY": "STAMFORD",
    "ST": "CT",
    "LAT": 41.02173,
    "LNG": -73.52157
  },
  {
    "NAME": "CUMMINGS BEACH PARK",
    "CITY": "STAMFORD",
    "ST": "CT",
    "LAT": 41.03993,
    "LNG": -73.52023
  },
  {
    "NAME": "HALLOWEEN YACHT CLUB",
    "CITY": "STAMFORD",
    "ST": "CT",
    "LAT": 41.04227,
    "LNG": -73.52295
  },
  {
    "NAME": "COVE ISLAND PARK/MARINA",
    "CITY": "STAMFORD",
    "ST": "CT",
    "LAT": 41.04673,
    "LNG": -73.50392
  },
  {
    "NAME": "HOLLY POND",
    "CITY": "STAMFORD",
    "ST": "CT",
    "LAT": 41.05,
    "LNG": -73.49667
  },
  {
    "NAME": "ALL SEASONS MARINE WORKS",
    "CITY": "NORWALK",
    "ST": "CT",
    "LAT": 41.06892,
    "LNG": -73.44375
  },
  {
    "NAME": "THE BAIT SHOP",
    "CITY": "ROWAYTON",
    "ST": "CT",
    "LAT": 41.0648,
    "LNG": -73.44465
  },
  {
    "NAME": "THE BOAT WORKS",
    "CITY": "ROWAYTON",
    "ST": "CT",
    "LAT": 41.065,
    "LNG": -73.445
  },
  {
    "NAME": "SOUTH NORWALK BOAT CLUB",
    "CITY": "NORWALK",
    "ST": "CT",
    "LAT": 41.09283,
    "LNG": -73.41243
  },
  {
    "NAME": "TOTAL MARINE OF NORWALK",
    "CITY": "NORWALK",
    "ST": "CT",
    "LAT": 41.09365,
    "LNG": -73.41282
  },
  {
    "NAME": "ISCHODA YACHT CLUB",
    "CITY": "NORWALK",
    "ST": "CT",
    "LAT": 41.09445,
    "LNG": -73.41535
  },
  {
    "NAME": "REX MARINE CENTER",
    "CITY": "NORWALK",
    "ST": "CT",
    "LAT": 41.09377,
    "LNG": -73.41523
  },
  {
    "NAME": "MarineMax",
    "CITY": "NORWALK",
    "ST": "CT",
    "LAT": 41.09568,
    "LNG": -73.41408
  },
  {
    "NAME": "COASTWISE BOATWORKS",
    "CITY": "NORWALK",
    "ST": "CT",
    "LAT": 41.10008,
    "LNG": -73.41363
  },
  {
    "NAME": "VETERAN'S MEMORIAL PARK",
    "CITY": "NORWALK",
    "ST": "CT",
    "LAT": 41.09715,
    "LNG": -73.41193
  },
  {
    "NAME": "PASTIME BOAT CLUB",
    "CITY": "NORWALK",
    "ST": "CT",
    "LAT": 41.09898,
    "LNG": -73.4064
  },
  {
    "NAME": "EAST NORWALK BOAT CLUB/HARBOR LIGHTS/OVERTON'S RESTAURANT",
    "CITY": "NORWALK",
    "ST": "CT",
    "LAT": 41.09853,
    "LNG": -73.40607
  },
  {
    "NAME": "EAST NORWALK BOATING & YACHT",
    "CITY": "NORWALK",
    "ST": "CT",
    "LAT": 41.09667,
    "LNG": -73.405
  },
  {
    "NAME": "CROSS CHANNEL MARINE",
    "CITY": "NORWALK",
    "ST": "CT",
    "LAT": 41.0963,
    "LNG": -73.4041
  },
  {
    "NAME": "SHORE & COUNTRY CLUB",
    "CITY": "NORWALK",
    "ST": "CT",
    "LAT": 41.08703,
    "LNG": -73.39917
  },
  {
    "NAME": "NORWALK TOWN BOAT LAUNCH AT VETERAN'S MEMORIAL PARK",
    "CITY": "NORWALK",
    "ST": "CT",
    "LAT": 41.09825,
    "LNG": -73.41282
  },
  {
    "NAME": "NORWALK COVE MARINA",
    "CITY": "EAST NORWALK",
    "ST": "CT",
    "LAT": 41.0869,
    "LNG": -73.39415
  },
  {
    "NAME": "CALF PASTURE BEACH/FISHING PIER",
    "CITY": "NORWALK",
    "ST": "CT",
    "LAT": 41.08357,
    "LNG": -73.39322
  },
  {
    "NAME": "SEYMOUR POINT/SAUGATUCK SHORES",
    "CITY": "SAUGATUCK",
    "ST": "CT",
    "LAT": 41.1,
    "LNG": -73.36667
  },
  {
    "NAME": "COMPO BEACH AND YACHT BASIN",
    "CITY": "WESTPORT",
    "ST": "CT",
    "LAT": 41.10482,
    "LNG": -73.35373
  },
  {
    "NAME": "COMPO COVE BEACH-MILLPOND CREEK",
    "CITY": "WESTPORT",
    "ST": "CT",
    "LAT": 41.11368,
    "LNG": -73.34475
  },
  {
    "NAME": "SHERWOOD ISLAND STATE PARK",
    "CITY": "WESTPORT",
    "ST": "CT",
    "LAT": 41.11008,
    "LNG": -73.33022
  },
  {
    "NAME": "BURYING HILL BEACH",
    "CITY": "WESTPORT",
    "ST": "CT",
    "LAT": 41.11562,
    "LNG": -73.31932
  },
  {
    "NAME": "SOUTHPORT BEACH (SASCO CR)",
    "CITY": "SOUTHPORT",
    "ST": "CT",
    "LAT": 41.12267,
    "LNG": -73.28933
  },
  {
    "NAME": "SOUTHPORT TOWN DOCK-YE YACHT YARD",
    "CITY": "SOUTHPORT",
    "ST": "CT",
    "LAT": 41.12928,
    "LNG": -73.28585
  },
  {
    "NAME": "SASCO POINT BEACH",
    "CITY": "FAIRFIELD",
    "ST": "CT",
    "LAT": 41.12488,
    "LNG": -73.27717
  },
  {
    "NAME": "SURFSIDE BEACH (PINE CREEK)",
    "CITY": "FAIRFIELD",
    "ST": "CT",
    "LAT": 41.11867,
    "LNG": -73.27167
  },
  {
    "NAME": "PINE CREEK ACCESS",
    "CITY": "FAIRFIELD",
    "ST": "CT",
    "LAT": 41.11867,
    "LNG": -73.255
  },
  {
    "NAME": "PENFIELD REEF",
    "CITY": "FAIRFIELD",
    "ST": "CT",
    "LAT": 41.1276,
    "LNG": -73.2426
  },
  {
    "NAME": "FAIRFIELD TOWN BEACH",
    "CITY": "FAIRFIELD",
    "ST": "CT",
    "LAT": 41.13667,
    "LNG": -73.24167
  },
  {
    "NAME": "SPENCER'S MARINA",
    "CITY": "MILFORD",
    "ST": "CT",
    "LAT": 41.21557,
    "LNG": -73.0533
  },
  {
    "NAME": "GULF BEACH EAST JETTY FISHING PIER",
    "CITY": "MILFORD",
    "ST": "CT",
    "LAT": 41.20845,
    "LNG": -73.04412
  },
  {
    "NAME": "BUCKINGHAM BRIDGE",
    "CITY": "MILFORD",
    "ST": "CT",
    "LAT": 41.21013,
    "LNG": -73.04797
  },
  {
    "NAME": "GULF BEACH GROIN",
    "CITY": "MILFORD",
    "ST": "CT",
    "LAT": 41.21012,
    "LNG": -73.0476
  },
  {
    "NAME": "BAYVIEW BEACH",
    "CITY": "MILFORD",
    "ST": "CT",
    "LAT": 41.2068,
    "LNG": -73.03342
  },
  {
    "NAME": "MORNINGSIDE BEACH",
    "CITY": "MILFORD",
    "ST": "CT",
    "LAT": 41.20893,
    "LNG": -73.01035
  },
  {
    "NAME": "MERWIN POINT",
    "CITY": "WOODMONT",
    "ST": "CT",
    "LAT": 41.22322,
    "LNG": -72.99245
  },
  {
    "NAME": "WOODMONT BEACH",
    "CITY": "MILFORD",
    "ST": "CT",
    "LAT": 41.22973,
    "LNG": -72.9889
  },
  {
    "NAME": "OYSTER RIVER BEACH",
    "CITY": "WOODMONT",
    "ST": "CT",
    "LAT": 41.23578,
    "LNG": -72.9861
  },
  {
    "NAME": "WESTSHORE BEACH",
    "CITY": "WEST HAVEN",
    "ST": "CT",
    "LAT": 41.24672,
    "LNG": -72.96565
  },
  {
    "NAME": "PROSPECT BEACH",
    "CITY": "WEST HAVEN",
    "ST": "CT",
    "LAT": 41.25165,
    "LNG": -72.96118
  },
  {
    "NAME": "SAVIN ROCK / BRADLEY POINT/ PALACE ST PIER",
    "CITY": "WEST HAVEN",
    "ST": "CT",
    "LAT": 41.25202,
    "LNG": -72.9568
  },
  {
    "NAME": "FISHING PIERS AT WEST HAVEN BEACH",
    "CITY": "WEST HAVEN",
    "ST": "CT",
    "LAT": 41.25657,
    "LNG": -72.95028
  },
  {
    "NAME": "PALACE STREET PUBLIC PIER",
    "CITY": "WEST HAVEN",
    "ST": "CT",
    "LAT": 41.2548,
    "LNG": -72.94215
  },
  {
    "NAME": "WASHINGTON AVE PUBLIC PIER",
    "CITY": "WEST HAVEN",
    "ST": "CT",
    "LAT": 41.25667,
    "LNG": -72.945
  },
  {
    "NAME": "SANDY POINT/WESTHAVEN SEASHORE",
    "CITY": "WEST HAVEN",
    "ST": "CT",
    "LAT": 41.26418,
    "LNG": -72.93162
  },
  {
    "NAME": "WEST HAVEN BOAT LAUNCH",
    "CITY": "WEST HAVEN",
    "ST": "CT",
    "LAT": 41.26923,
    "LNG": -72.93223
  },
  {
    "NAME": "ACCESS UNDER KIMBERLY AVENUE BRIDGE",
    "CITY": "WEST HAVEN",
    "ST": "CT",
    "LAT": 41.28102,
    "LNG": -72.93878
  },
  {
    "NAME": "CITY POINT YACHT CLUB WEST",
    "CITY": "WEST HAVEN",
    "ST": "CT",
    "LAT": 41.28192,
    "LNG": -72.94055
  },
  {
    "NAME": "CITY POINT YACHT CLUB EAST",
    "CITY": "WEST HAVEN",
    "ST": "CT",
    "LAT": 41.28262,
    "LNG": -72.93862
  },
  {
    "NAME": "PEQUONNOCK YACHT CLUB",
    "CITY": "NEW HAVEN",
    "ST": "CT",
    "LAT": 41.28093,
    "LNG": -72.9301
  },
  {
    "NAME": "WATER ST./FORBES AVE BRIDGE FISHING PIER",
    "CITY": "NEW HAVEN",
    "ST": "CT",
    "LAT": 41.2975,
    "LNG": -72.90483
  },
  {
    "NAME": "FORT HALE PARK WHARF/ FISHING PIER",
    "CITY": "HAVEN",
    "ST": "CT",
    "LAT": 41.26912,
    "LNG": -72.9028
  },
  {
    "NAME": "NEW HAVEN YACHT CLUB",
    "CITY": "HAVEN",
    "ST": "CT",
    "LAT": 41.25613,
    "LNG": -72.89532
  },
  {
    "NAME": "LIGHTHOUSE PT. PARK",
    "CITY": "NEW HAVEN",
    "ST": "CT",
    "LAT": 41.25175,
    "LNG": -72.90283
  },
  {
    "NAME": "LIGHTHOUSE MARINA",
    "CITY": "HAVEN",
    "ST": "CT",
    "LAT": 41.24815,
    "LNG": -72.89673
  },
  {
    "NAME": "BRANFORD POINT TOWN PIER",
    "CITY": "BRANFORD",
    "ST": "CT",
    "LAT": 41.26043,
    "LNG": -72.8208
  },
  {
    "NAME": "BRANFORD YACHT CLUB",
    "CITY": "BRANFORD",
    "ST": "CT",
    "LAT": 41.26307,
    "LNG": -72.81725
  },
  {
    "NAME": "BREWER BRUCE AND JOHNSON'S MARINA WEST",
    "CITY": "BRANFORD",
    "ST": "CT",
    "LAT": 41.26338,
    "LNG": -72.81495
  },
  {
    "NAME": "GOODSELL POINT MARINA",
    "CITY": "BRANFORD",
    "ST": "CT",
    "LAT": 41.26352,
    "LNG": -72.81278
  },
  {
    "NAME": "BRANFORD RIVER STATE BOAT LAUNCH",
    "CITY": "BRANFORD",
    "ST": "CT",
    "LAT": 41.26535,
    "LNG": -72.8167
  },
  {
    "NAME": "INDIAN NECK BRIDGE",
    "CITY": "BRANFORD",
    "ST": "CT",
    "LAT": 41.27428,
    "LNG": -72.81197
  },
  {
    "NAME": "INDIAN NECK YACHT CLUB",
    "CITY": "BRANFORD",
    "ST": "CT",
    "LAT": 41.27098,
    "LNG": -72.81437
  },
  {
    "NAME": "PINE ORCHARD YACHT CLUB",
    "CITY": "BRANFORD",
    "ST": "CT",
    "LAT": 41.26523,
    "LNG": -72.77232
  },
  {
    "NAME": "STONY CREEK TOWN PIERS-DOCK&SEAWALL",
    "CITY": "BRANFORD",
    "ST": "CT",
    "LAT": 41.26412,
    "LNG": -72.75277
  },
  {
    "NAME": "JOSHUA COVE -ST ACCESS",
    "CITY": "GUILFORD",
    "ST": "CT",
    "LAT": 41.25933,
    "LNG": -72.70467
  },
  {
    "NAME": "BROWN'S BOAT YARD",
    "CITY": "GUILFORD",
    "ST": "CT",
    "LAT": 41.26693,
    "LNG": -72.67747
  },
  {
    "NAME": "JACOB'S BEACH",
    "CITY": "GUILFORD",
    "ST": "CT",
    "LAT": 41.26885,
    "LNG": -72.66798
  },
  {
    "NAME": "GUILFORD TOWN MARINA AND BOAT LAUNCH",
    "CITY": "GUILFORD",
    "ST": "CT",
    "LAT": 41.27177,
    "LNG": -72.6647
  },
  {
    "NAME": "EAST RIVER BRIDGE",
    "CITY": "GUILFORD",
    "ST": "CT",
    "LAT": 41.28558,
    "LNG": -72.64713
  },
  {
    "NAME": "SURF CLUB POINT BEACH/MADISON COUNTRY CLUB",
    "CITY": "MADISON",
    "ST": "CT",
    "LAT": 41.27202,
    "LNG": -72.61793
  },
  {
    "NAME": "WEST WHARF BEACH",
    "CITY": "MADISON",
    "ST": "CT",
    "LAT": 41.27007,
    "LNG": -72.60842
  },
  {
    "NAME": "MIDDLE BEACH ROAD",
    "CITY": "MADISON",
    "ST": "CT",
    "LAT": 41.26912,
    "LNG": -72.59918
  },
  {
    "NAME": "EAST WHARF BEACH",
    "CITY": "MADISON",
    "ST": "CT",
    "LAT": 41.27013,
    "LNG": -72.59025
  },
  {
    "NAME": "HAMMONASSETT STATE PARK",
    "CITY": "MADISON",
    "ST": "CT",
    "LAT": 41.24965,
    "LNG": -72.54558
  },
  {
    "NAME": "THE BOAT CENTER WEST",
    "CITY": "MADISON",
    "ST": "CT",
    "LAT": 41.27537,
    "LNG": -72.5458
  },
  {
    "NAME": "HAMMONASSETT RIVER BRIDGE",
    "CITY": "MADISON",
    "ST": "CT",
    "LAT": 41.27628,
    "LNG": -72.54605
  },
  {
    "NAME": "MILFORD HARBOR WEST JETTY",
    "CITY": "MILFORD",
    "ST": "CT",
    "LAT": 41.21035,
    "LNG": -73.04948
  },
  {
    "NAME": "MILFORD BOAT WORKS",
    "CITY": "MILFORD",
    "ST": "CT",
    "LAT": 41.2196,
    "LNG": -73.05513
  },
  {
    "NAME": "MILFORD HARBOR MARINA",
    "CITY": "MILFORD",
    "ST": "CT",
    "LAT": 41.21832,
    "LNG": -73.05637
  },
  {
    "NAME": "CERINO'S MARINE",
    "CITY": "MILFORD",
    "ST": "CT",
    "LAT": 41.21667,
    "LNG": -73.05667
  },
  {
    "NAME": "SHINERS COVE MARINA",
    "CITY": "WEST HAVEN",
    "ST": "CT",
    "LAT": 41.28,
    "LNG": -72.92833
  },
  {
    "NAME": "BIRBARIE MARINE",
    "CITY": "BRANFORD",
    "ST": "CT",
    "LAT": 41.27328,
    "LNG": -72.8115
  },
  {
    "NAME": "GUILFORD YACHT CLUB",
    "CITY": "GUILFORD",
    "ST": "CT",
    "LAT": 41.27072,
    "LNG": -72.67775
  },
  {
    "NAME": "GUILFORD BOAT YARDS",
    "CITY": "GUILFORD",
    "ST": "CT",
    "LAT": 41.27685,
    "LNG": -72.68818
  },
  {
    "NAME": "PORT MILFORD",
    "CITY": "MILFORD",
    "ST": "CT",
    "LAT": 41.21288,
    "LNG": -73.05407
  },
  {
    "NAME": "DEEP MARINE HEADQUARTERS FISHING PIER/BOARDWALK",
    "CITY": "OLD LYME",
    "ST": "CT",
    "LAT": 41.31143,
    "LNG": -72.34663
  },
  {
    "NAME": "LIEUTENANT RIVER 156 BRIDGE STATE ACCESS",
    "CITY": "OLD LYME",
    "ST": "CT",
    "LAT": 41.31433,
    "LNG": -72.33735
  },
  {
    "NAME": "GREAT ISLAND STATE BOAT LAUNCH",
    "CITY": "OLD LYME",
    "ST": "CT",
    "LAT": 41.2873,
    "LNG": -72.32402
  },
  {
    "NAME": "BLACK HALL MARINA",
    "CITY": "OLD LYME",
    "ST": "CT",
    "LAT": 41.2902,
    "LNG": -72.31245
  },
  {
    "NAME": "ROCKS SAND BEACH",
    "CITY": "OLD LYME",
    "ST": "CT",
    "LAT": 41.27992,
    "LNG": -72.3011
  },
  {
    "NAME": "SALTAIRE DRIVE ACCESS",
    "CITY": "OLD LYME",
    "ST": "CT",
    "LAT": 41.28462,
    "LNG": -72.2729
  },
  {
    "NAME": "POINT O WOODS/MARINA AND BEACH",
    "CITY": "OLD LYME",
    "ST": "CT",
    "LAT": 41.2918,
    "LNG": -72.25362
  },
  {
    "NAME": "FOUR MILE RIVER STATE BOAT LAUNCH",
    "CITY": "SOUTH LYME",
    "ST": "CT",
    "LAT": 41.3022,
    "LNG": -72.25077
  },
  {
    "NAME": "ROCKY NECK STATE PARK",
    "CITY": "NIANTIC",
    "ST": "CT",
    "LAT": 41.30082,
    "LNG": -72.24328
  },
  {
    "NAME": "GIANTS NECK BEACH ASSOCIATION DOCK",
    "CITY": "LYME",
    "ST": "CT",
    "LAT": 41.30027,
    "LNG": -72.23543
  },
  {
    "NAME": "FAIRHAVEN RD BRIDGE-PATTAGANSETT RV",
    "CITY": "NIANTIC",
    "ST": "CT",
    "LAT": 41.31377,
    "LNG": -72.21827
  },
  {
    "NAME": "MCCOOK POINT PARK&CRESCENT BEACH",
    "CITY": "NIANTIC",
    "ST": "CT",
    "LAT": 41.31865,
    "LNG": -72.19788
  },
  {
    "NAME": "RAILROAD BEACH",
    "CITY": "NIANTIC",
    "ST": "CT",
    "LAT": 41.32272,
    "LNG": -72.1783
  },
  {
    "NAME": "SHORE ACCESS EAST SIDE OF NIANTIC RIVER",
    "CITY": "NIANTIC",
    "ST": "CT",
    "LAT": 41.3246,
    "LNG": -72.1761
  },
  {
    "NAME": "BOAT'S INC",
    "CITY": "NIANTIC",
    "ST": "CT",
    "LAT": 41.32505,
    "LNG": -72.18627
  },
  {
    "NAME": "GOLDEN SPUR",
    "CITY": "NIANTIC",
    "ST": "CT",
    "LAT": 41.36883,
    "LNG": -72.1931
  },
  {
    "NAME": "CAPT JOHN'S SPORTFISHING CENTER AND MAGO POINT PIER",
    "CITY": "WATERFORD",
    "ST": "CT",
    "LAT": 41.3251,
    "LNG": -72.17635
  },
  {
    "NAME": "NIANTIC SPORTFISHING CENTER",
    "CITY": "WATERFORD",
    "ST": "CT",
    "LAT": 41.32533,
    "LNG": -72.17682
  },
  {
    "NAME": "MIJOY 747 HEADBOAT",
    "CITY": "WATERFORD",
    "ST": "CT",
    "LAT": 41.3231,
    "LNG": -72.17622
  },
  {
    "NAME": "JORDAN COVE FISHING ACCESS",
    "CITY": "WATERFORD",
    "ST": "CT",
    "LAT": 41.31933,
    "LNG": -72.14898
  },
  {
    "NAME": "NIANTIC STATE BOAT LAUNCH",
    "CITY": "WATERFORD",
    "ST": "CT",
    "LAT": 41.3263,
    "LNG": -72.17553
  },
  {
    "NAME": "HARKNESS MEMORIAL STATE PARK",
    "CITY": "WATERFORD",
    "ST": "CT",
    "LAT": 41.30315,
    "LNG": -72.11517
  },
  {
    "NAME": "OCEAN BEACH PARK",
    "CITY": "NEW LONDON",
    "ST": "CT",
    "LAT": 41.30822,
    "LNG": -72.09902
  },
  {
    "NAME": "ROCKS AT END OF PEQUOT AVE.",
    "CITY": "NEW LONDON",
    "ST": "CT",
    "LAT": 41.32318,
    "LNG": -72.08842
  },
  {
    "NAME": "THAMES YACHT CLUB",
    "CITY": "NEW LONDON",
    "ST": "CT",
    "LAT": 41.33,
    "LNG": -72.095
  },
  {
    "NAME": "THAMESPORT MARINA",
    "CITY": "NEW LONDON",
    "ST": "CT",
    "LAT": 41.3343,
    "LNG": -72.09748
  },
  {
    "NAME": "BURR'S MARINA",
    "CITY": "NEW LONDON",
    "ST": "CT",
    "LAT": 41.33467,
    "LNG": -72.09817
  },
  {
    "NAME": "A & W MARINA",
    "CITY": "NEW LONDON",
    "ST": "CT",
    "LAT": 41.33637,
    "LNG": -72.09963
  },
  {
    "NAME": "NEW LONDON CITY PIER",
    "CITY": "NEW LONDON",
    "ST": "CT",
    "LAT": 41.35382,
    "LNG": -72.0927
  },
  {
    "NAME": "NEW LONDON STATE BOAT LAUNCH",
    "CITY": "NEW LONDON",
    "ST": "CT",
    "LAT": 41.36338,
    "LNG": -72.09117
  },
  {
    "NAME": "KENNETH STREETER STATE BOAT LAUNCH",
    "CITY": "GROTON",
    "ST": "CT",
    "LAT": 41.36377,
    "LNG": -72.0846
  },
  {
    "NAME": "HEL-CAT II DOCK",
    "CITY": "GROTON",
    "ST": "CT",
    "LAT": 41.35777,
    "LNG": -72.08483
  },
  {
    "NAME": "EASTERN POINT BEACH",
    "CITY": "GROTON",
    "ST": "CT",
    "LAT": 41.32003,
    "LNG": -72.07467
  },
  {
    "NAME": "SHENNECOSSETT YACHT CLUB",
    "CITY": "GROTON",
    "ST": "CT",
    "LAT": 41.31917,
    "LNG": -72.06182
  },
  {
    "NAME": "PINE ISLAND MARINA",
    "CITY": "GROTON",
    "ST": "CT",
    "LAT": 41.32038,
    "LNG": -72.0595
  },
  {
    "NAME": "BAYBERRY LANE STATE BOAT LAUNCH",
    "CITY": "GROTON",
    "ST": "CT",
    "LAT": 41.32065,
    "LNG": -72.05828
  },
  {
    "NAME": "BLUFF POINT STATE PARK",
    "CITY": "GROTON",
    "ST": "CT",
    "LAT": 41.33612,
    "LNG": -72.03438
  },
  {
    "NAME": "PALMER'S COVE MARINA",
    "CITY": "GROTON",
    "ST": "CT",
    "LAT": 41.3209,
    "LNG": -72.00393
  },
  {
    "NAME": "SPICER'S MARINA",
    "CITY": "NOANK",
    "ST": "CT",
    "LAT": 41.32288,
    "LNG": -71.99382
  },
  {
    "NAME": "NOANK SHIPYARD",
    "CITY": "NOANK",
    "ST": "CT",
    "LAT": 41.3199,
    "LNG": -71.98953
  },
  {
    "NAME": "NOANK TOWN DOCK",
    "CITY": "NOANK",
    "ST": "CT",
    "LAT": 41.32522,
    "LNG": -71.98467
  },
  {
    "NAME": "NOANK VILLAGE BOAT YARD",
    "CITY": "NOANK",
    "ST": "CT",
    "LAT": 41.32952,
    "LNG": -71.98602
  },
  {
    "NAME": "NOANK MARINE SERVICE",
    "CITY": "NOANK",
    "ST": "CT",
    "LAT": 41.32913,
    "LNG": -71.98748
  },
  {
    "NAME": "WILLOW POINT MARINA",
    "CITY": "GROTON",
    "ST": "CT",
    "LAT": 41.34517,
    "LNG": -71.97622
  },
  {
    "NAME": "MYSTIC DOWNTOWN MARINA",
    "CITY": "MYSTIC",
    "ST": "CT",
    "LAT": 41.35182,
    "LNG": -71.972
  },
  {
    "NAME": "MYSTIC MARINE BASIN",
    "CITY": "MYSTIC",
    "ST": "CT",
    "LAT": 41.38333,
    "LNG": -71.96333
  },
  {
    "NAME": "GWENMOR MARINA",
    "CITY": "MYSTIC",
    "ST": "CT",
    "LAT": 41.34862,
    "LNG": -71.96555
  },
  {
    "NAME": "SAFE HARBOR MYSTIC",
    "CITY": "MYSTIC",
    "ST": "CT",
    "LAT": 41.34738,
    "LNG": -71.96787
  },
  {
    "NAME": "MYSTIC SHIPYARD EAST",
    "CITY": "MYSTIC",
    "ST": "CT",
    "LAT": 41.34897,
    "LNG": -71.96217
  },
  {
    "NAME": "SHAFFER'S MARINA",
    "CITY": "MYSTIC",
    "ST": "CT",
    "LAT": 41.34087,
    "LNG": -71.95895
  },
  {
    "NAME": "MASONS ISLAND RD. BRIDGE FISHING ACCESS",
    "CITY": "MYSTIC",
    "ST": "CT",
    "LAT": 41.34012,
    "LNG": -71.96018
  },
  {
    "NAME": "BROWER'S COVE MARINA",
    "CITY": "MYSTIC",
    "ST": "CT",
    "LAT": 41.34167,
    "LNG": -71.94833
  },
  {
    "NAME": "GUILFORD TOWN MARINA AND BOAT LAUNCH",
    "CITY": "GUILFORD",
    "ST": "CT",
    "LAT": 41.27177,
    "LNG": -72.6647
  },
  {
    "NAME": "QUAMBAUG COVE BRIDGE",
    "CITY": "STONINGTON",
    "ST": "CT",
    "LAT": 41.342,
    "LNG": -71.93687
  },
  {
    "NAME": "CARDINAL COVE MARINA",
    "CITY": "STONINGTON",
    "ST": "CT",
    "LAT": 41.3457,
    "LNG": -71.91962
  },
  {
    "NAME": "RTE 1A BRIDGE OVER QUANNADUCK COVE",
    "CITY": "STONINGTON",
    "ST": "CT",
    "LAT": 41.3439,
    "LNG": -71.90888
  },
  {
    "NAME": "DON'S DOCK",
    "CITY": "STONINGTON",
    "ST": "CT",
    "LAT": 41.34222,
    "LNG": -71.90902
  },
  {
    "NAME": "STONINGTON TOWN DOCK",
    "CITY": "STONINGTON",
    "ST": "CT",
    "LAT": 41.3353,
    "LNG": -71.91117
  },
  {
    "NAME": "WALKER'S DOCK",
    "CITY": "STONINGTON",
    "ST": "CT",
    "LAT": 41.33952,
    "LNG": -71.89067
  },
  {
    "NAME": "COVESIDE MARINA",
    "CITY": "STONINGTON",
    "ST": "CT",
    "LAT": 41.35167,
    "LNG": -71.88393
  },
  {
    "NAME": "STONINGTON MARINA",
    "CITY": "STONINGTON",
    "ST": "CT",
    "LAT": 41.3577,
    "LNG": -71.88022
  },
  {
    "NAME": "BARN ISLAND STATE BOAT LAUNCH",
    "CITY": "STONINGTON",
    "ST": "CT",
    "LAT": 41.33752,
    "LNG": -71.87587
  },
  {
    "NAME": "GREENHAVEN MARINA",
    "CITY": "PAWCATUCK",
    "ST": "CT",
    "LAT": 41.33415,
    "LNG": -71.84227
  },
  {
    "NAME": "STONINGTON RIVER DOCKOMINIUMS",
    "CITY": "PAWCATUCK",
    "ST": "CT",
    "LAT": 41.34677,
    "LNG": -71.83237
  },
  {
    "NAME": "CONNERS & O'BRIEN MARINA",
    "CITY": "PAWCATUCK",
    "ST": "CT",
    "LAT": 41.36473,
    "LNG": -71.83868
  },
  {
    "NAME": "PAWCATUCK RIVER BOAT YARD",
    "CITY": "PAWCATUCK",
    "ST": "CT",
    "LAT": 41.37333,
    "LNG": -71.83167
  },
  {
    "NAME": "MONTVILLE POWER PLANT",
    "CITY": "UNCASVILLE",
    "ST": "CT",
    "LAT": 41.4271,
    "LNG": -72.10205
  },
  {
    "NAME": "MONTVILLE BOAT LAUNCH",
    "CITY": "MONTVILLE",
    "ST": "CT",
    "LAT": 41.4323,
    "LNG": -72.09845
  },
  {
    "NAME": "FORT SHANTOCK STATE PARK",
    "CITY": "UNCASVILLE",
    "ST": "CT",
    "LAT": 41.48575,
    "LNG": -72.08023
  },
  {
    "NAME": "BROWN MEMORIAL PARK",
    "CITY": "NORWICH",
    "ST": "CT",
    "LAT": 41.52293,
    "LNG": -72.07772
  },
  {
    "NAME": "BLACKHAWK",
    "CITY": "NIANTIC",
    "ST": "CT",
    "LAT": 41.32315,
    "LNG": -72.17707
  },
  {
    "NAME": "WEST BANK OF MYSTIC RIVER UNDER I-95",
    "CITY": "MYSTIC",
    "ST": "CT",
    "LAT": 41.37392,
    "LNG": -71.96597
  },
  {
    "NAME": "Niantic Bay Boathouse",
    "CITY": "WATERFORD",
    "ST": "CT",
    "LAT": 41.32363,
    "LNG": -72.17592
  },
  {
    "NAME": "PORT NIANTIC",
    "CITY": "NIANTIC",
    "ST": "CT",
    "LAT": 41.32613,
    "LNG": -72.18707
  },
  {
    "NAME": "HARBOR HILL MARINA",
    "CITY": "NIANTIC",
    "ST": "CT",
    "LAT": 41.32567,
    "LNG": -72.18672
  },
  {
    "NAME": "RATHBUN'S DOCK",
    "CITY": "NOANK",
    "ST": "CT",
    "LAT": 41.32342,
    "LNG": -71.98613
  },
  {
    "NAME": "CINI PARK (NIANTIC RIVER ACCESS)",
    "CITY": "NIANTIC",
    "ST": "CT",
    "LAT": 41.32418,
    "LNG": -72.17705
  },