[
  {
    "display_name": "East Natashamouth \u2013 Lauren Pike \u2013 Boat Ramp",
    "city": "East Natashamouth",
    "name": "Lauren Pike",
    "type": "boat_ramp",
    "lat": 33.288376,
    "lon": -98.680841,
    "region": "NY"
  },
  {
    "display_name": "East Tiffany \u2013 Calderon Cliffs \u2013 Beach",
    "city": "East Tiffany",
    "name": "Calderon Cliffs",
    "type": "beach",
    "lat": 34.730644,
    "lon": -117.365613,
    "region": "NY"
  },
  {
    "display_name": "Carlaburgh \u2013 Mary Drive \u2013 Campground",
    "city": "Carlaburgh",
    "name": "Mary Drive",
    "type": "campground",
    "lat": 12.165244,
    "lon": -78.562842,
    "region": "FL"
  },
  {
    "display_name": "Johnnymouth \u2013 Garcia Tunnel \u2013 Pier",
    "city": "Johnnymouth",
    "name": "Garcia Tunnel",
    "type": "pier",
    "lat": 51.801049,
    "lon": -95.60652,
    "region": "MX"
  },
  {
    "display_name": "East Justinburgh \u2013 Merritt Pines \u2013 Inlet",
    "city": "East Justinburgh",
    "name": "Merritt Pines",
    "type": "inlet",
    "lat": 27.481937,
    "lon": -69.28291,
    "region": "CA"
  },
  {
    "display_name": "Port Paulaborough \u2013 Stevens Field \u2013 City",
    "city": "Port Paulaborough",
    "name": "Stevens Field",
    "type": "city",
    "lat": 18.467253,
    "lon": -148.685534,
    "region": "NY"
  },
  {
    "display_name": "Aliciahaven \u2013 Michael Passage \u2013 Boat Ramp",
    "city": "Aliciahaven",
    "name": "Michael Passage",
    "type": "boat_ramp",
    "lat": 18.451275,
    "lon": -100.490461,
    "region": "CA"
  },
  {
    "display_name": "Johnland \u2013 Black Roads \u2013 Park",
    "city": "Johnland",
    "name": "Black Roads",
    "type": "park",
    "lat": 58.210409,
    "lon": -140.740779,
    "region": "TX"
  },
  {
    "display_name": "North Lauren \u2013 Michael Cape \u2013 Inlet",
    "city": "North Lauren",
    "name": "Michael Cape",
    "type": "inlet",
    "lat": 53.344102,
    "lon": -91.479894,
    "region": "NY"
  },
  {
    "display_name": "Lake Christinaville \u2013 Kennedy Points \u2013 Park",
    "city": "Lake Christinaville",
    "name": "Kennedy Points",
    "type": "park",
    "lat": 52.287266,
    "lon": -131.664513,
    "region": "LA"
  },
  {
    "display_name": "Port Anthonymouth \u2013 Brooks Lodge \u2013 Park",
    "city": "Port Anthonymouth",
    "name": "Brooks Lodge",
    "type": "park",
    "lat": 15.141379,
    "lon": -91.952107,
    "region": "BC"
  },
  {
    "display_name": "Hamiltonshire \u2013 William Lock \u2013 Inlet",
    "city": "Hamiltonshire",
    "name": "William Lock",
    "type": "inlet",
    "lat": 17.862358,
    "lon": -83.342297,
    "region": "LA"
  },
  {
    "display_name": "Michaelmouth \u2013 Danielle Rapid \u2013 Inlet",
    "city": "Michaelmouth",
    "name": "Danielle Rapid",
    "type": "inlet",
    "lat": 41.224513,
    "lon": -119.840427,
    "region": "BC"
  },
  {
    "display_name": "South Ashley \u2013 Monica Mills \u2013 Pier",
    "city": "South Ashley",
    "name": "Monica Mills",
    "type": "pier",
    "lat": 11.847671,
    "lon": -140.862578,
    "region": "ON"
  },
  {
    "display_name": "Wagnerton \u2013 Jose Light \u2013 Beach",
    "city": "Wagnerton",
    "name": "Jose Light",
    "type": "beach",
    "lat": 31.428457,
    "lon": -69.41357,
    "region": "LA"
  },
  {
    "display_name": "Abigailborough \u2013 Jesse Rapids \u2013 Beach",
    "city": "Abigailborough",
    "name": "Jesse Rapids",
    "type": "beach",
    "lat": 39.228829,
    "lon": -72.174433,
    "region": "FL"
  },
  {
    "display_name": "Lamport \u2013 Dean Mall \u2013 Park",
    "city": "Lamport",
    "name": "Dean Mall",
    "type": "park",
    "lat": 23.170338,
    "lon": -83.127136,
    "region": "TX"
  },
  {
    "display_name": "Masonview \u2013 Ibarra Rapids \u2013 City",
    "city": "Masonview",
    "name": "Ibarra Rapids",
    "type": "city",
    "lat": 27.45761,
    "lon": -136.645943,
    "region": "ON"
  },
  {
    "display_name": "Johntown \u2013 Ibarra Forge \u2013 Beach",
    "city": "Johntown",
    "name": "Ibarra Forge",
    "type": "beach",
    "lat": 43.198308,
    "lon": -92.804535,
    "region": "BC"
  },
  {
    "display_name": "Wallacefort \u2013 Hernandez Road \u2013 Beach",
    "city": "Wallacefort",
    "name": "Hernandez Road",
    "type": "beach",
    "lat": 54.550296,
    "lon": -79.505064,
    "region": "NY"
  },
  {
    "display_name": "Port Katie \u2013 Melissa Vista \u2013 Park",
    "city": "Port Katie",
    "name": "Melissa Vista",
    "type": "park",
    "lat": 23.499354,
    "lon": -129.964742,
    "region": "ON"
  },
  {
    "display_name": "Lake Shaunchester \u2013 Hanson Square \u2013 Inlet",
    "city": "Lake Shaunchester",
    "name": "Hanson Square",
    "type": "inlet",
    "lat": 57.131795,
    "lon": -116.750197,
    "region": "TX"
  },
  {
    "display_name": "North Joshuafurt \u2013 Guerrero Mall \u2013 Inlet",
    "city": "North Joshuafurt",
    "name": "Guerrero Mall",
    "type": "inlet",
    "lat": 34.555332,
    "lon": -71.26714,
    "region": "NY"
  },
  {
    "display_name": "Ashleyshire \u2013 Julie Underpass \u2013 Beach",
    "city": "Ashleyshire",
    "name": "Julie Underpass",
    "type": "beach",
    "lat": 56.404776,
    "lon": -128.962464,
    "region": "NY"
  },
  {
    "display_name": "East Miguel \u2013 Nicole Dale \u2013 Pier",
    "city": "East Miguel",
    "name": "Nicole Dale",
    "type": "pier",
    "lat": 14.691311,
    "lon": -139.113923,
    "region": "BC"
  },
  {
    "display_name": "Ryantown \u2013 Raymond Path \u2013 City",
    "city": "Ryantown",
    "name": "Raymond Path",
    "type": "city",
    "lat": 23.95866,
    "lon": -63.298487,
    "region": "MX"
  },
  {
    "display_name": "Lisaland \u2013 Gonzalez Coves \u2013 Pier",
    "city": "Lisaland",
    "name": "Gonzalez Coves",
    "type": "pier",
    "lat": 50.829922,
    "lon": -70.253081,
    "region": "NC"
  },
  {
    "display_name": "Perryfurt \u2013 West Wall \u2013 Boat Ramp",
    "city": "Perryfurt",
    "name": "West Wall",
    "type": "boat_ramp",
    "lat": 19.485701,
    "lon": -92.217249,
    "region": "NC"
  },
  {
    "display_name": "Whiteland \u2013 Jessica Rue \u2013 Beach",
    "city": "Whiteland",
    "name": "Jessica Rue",
    "type": "beach",
    "lat": 17.131288,
    "lon": -140.367532,
    "region": "CAR"
  },
  {
    "display_name": "Catherinefurt \u2013 Andrew Extensions \u2013 City",
    "city": "Catherinefurt",
    "name": "Andrew Extensions",
    "type": "city",
    "lat": 46.363635,
    "lon": -69.338657,
    "region": "NC"
  },
  {
    "display_name": "Lake Alicia \u2013 Alexander Stravenue \u2013 Boat Ramp",
    "city": "Lake Alicia",
    "name": "Alexander Stravenue",
    "type": "boat_ramp",
    "lat": 31.42374,
    "lon": -140.296856,
    "region": "CAR"
  },
  {
    "display_name": "Rebekahville \u2013 Vanessa Glens \u2013 Park",
    "city": "Rebekahville",
    "name": "Vanessa Glens",
    "type": "park",
    "lat": 49.113464,
    "lon": -107.091694,
    "region": "CA"
  },
  {
    "display_name": "Burgessfurt \u2013 Evans Well \u2013 Campground",
    "city": "Burgessfurt",
    "name": "Evans Well",
    "type": "campground",
    "lat": 43.903905,
    "lon": -139.759979,
    "region": "ON"
  },
  {
    "display_name": "Lucasfort \u2013 Lopez Neck \u2013 City",
    "city": "Lucasfort",
    "name": "Lopez Neck",
    "type": "city",
    "lat": 52.400273,
    "lon": -140.779172,
    "region": "CA"
  },
  {
    "display_name": "Bethburgh \u2013 Lynn Inlet \u2013 Park",
    "city": "Bethburgh",
    "name": "Lynn Inlet",
    "type": "park",
    "lat": 32.005354,
    "lon": -112.867019,
    "region": "CA"
  },
  {
    "display_name": "Sanchezhaven \u2013 Jamie Course \u2013 Park",
    "city": "Sanchezhaven",
    "name": "Jamie Course",
    "type": "park",
    "lat": 49.009803,
    "lon": -149.233424,
    "region": "NY"
  },
  {
    "display_name": "Marissafort \u2013 Annette Run \u2013 Pier",
    "city": "Marissafort",
    "name": "Annette Run",
    "type": "pier",
    "lat": 48.066673,
    "lon": -102.007752,
    "region": "LA"
  },
  {
    "display_name": "West Michelleshire \u2013 Rocha Keys \u2013 City",
    "city": "West Michelleshire",
    "name": "Rocha Keys",
    "type": "city",
    "lat": 43.001974,
    "lon": -146.853923,
    "region": "LA"
  },
  {
    "display_name": "Alishahaven \u2013 Taylor Hills \u2013 Park",
    "city": "Alishahaven",
    "name": "Taylor Hills",
    "type": "park",
    "lat": 57.782688,
    "lon": -131.11279,
    "region": "CAR"
  },
  {
    "display_name": "West Whitneychester \u2013 Peterson Branch \u2013 Beach",
    "city": "West Whitneychester",
    "name": "Peterson Branch",
    "type": "beach",
    "lat": 40.941128,
    "lon": -94.316814,
    "region": "NC"
  },
  {
    "display_name": "Port Jenniferhaven \u2013 David Place \u2013 Park",
    "city": "Port Jenniferhaven",
    "name": "David Place",
    "type": "park",
    "lat": 47.939507,
    "lon": -105.349735,
    "region": "ON"
  },
  {
    "display_name": "Danieltown \u2013 Tony Station \u2013 Campground",
    "city": "Danieltown",
    "name": "Tony Station",
    "type": "campground",
    "lat": 40.806371,
    "lon": -131.020217,
    "region": "CA"
  },
  {
    "display_name": "Herringland \u2013 Werner Manor \u2013 Campground",
    "city": "Herringland",
    "name": "Werner Manor",
    "type": "campground",
    "lat": 24.447459,
    "lon": -123.171928,
    "region": "CA"
  },
  {
    "display_name": "Rowlandtown \u2013 Kelly Ports \u2013 Beach",
    "city": "Rowlandtown",
    "name": "Kelly Ports",
    "type": "beach",
    "lat": 47.634638,
    "lon": -75.572802,
    "region": "FL"
  },
  {
    "display_name": "Richardside \u2013 Bryan Locks \u2013 City",
    "city": "Richardside",
    "name": "Bryan Locks",
    "type": "city",
    "lat": 36.042386,
    "lon": -117.493696,
    "region": "CA"
  },
  {
    "display_name": "Bakerport \u2013 Thomas Plaza \u2013 Pier",
    "city": "Bakerport",
    "name": "Thomas Plaza",
    "type": "pier",
    "lat": 39.748997,
    "lon": -118.621759,
    "region": "NY"
  },
  {
    "display_name": "Scotthaven \u2013 Brown Way \u2013 City",
    "city": "Scotthaven",
    "name": "Brown Way",
    "type": "city",
    "lat": 23.418348,
    "lon": -145.480101,
    "region": "CA"
  },
  {
    "display_name": "Andersonhaven \u2013 Brandt Bypass \u2013 Campground",
    "city": "Andersonhaven",
    "name": "Brandt Bypass",
    "type": "campground",
    "lat": 58.360063,
    "lon": -134.368925,
    "region": "NY"
  },
  {
    "display_name": "North Morgan \u2013 Lara Road \u2013 Inlet",
    "city": "North Morgan",
    "name": "Lara Road",
    "type": "inlet",
    "lat": 33.209844,
    "lon": -95.699065,
    "region": "BC"
  },
  {
    "display_name": "Moraleston \u2013 Benjamin Lakes \u2013 Boat Ramp",
    "city": "Moraleston",
    "name": "Benjamin Lakes",
    "type": "boat_ramp",
    "lat": 54.16977,
    "lon": -68.692494,
    "region": "FL"
  },
  {
    "display_name": "Nielsenstad \u2013 Payne \u2013 Pier",
    "city": "Nielsenstad",
    "name": "Payne",
    "type": "pier",
    "lat": 57.359787,
    "lon": -86.866728,
    "region": "TX"
  },
  {
    "display_name": "Russellville \u2013 Timothy Station \u2013 Campground",
    "city": "Russellville",
    "name": "Timothy Station",
    "type": "campground",
    "lat": 46.134962,
    "lon": -124.363822,
    "region": "CAR"
  },
  {
    "display_name": "Lake Ethan \u2013 Dustin Tunnel \u2013 City",
    "city": "Lake Ethan",
    "name": "Dustin Tunnel",
    "type": "city",
    "lat": 43.467082,
    "lon": -101.930566,
    "region": "NY"
  },
  {
    "display_name": "Brandonville \u2013 Martha Lake \u2013 Boat Ramp",
    "city": "Brandonville",
    "name": "Martha Lake",
    "type": "boat_ramp",
    "lat": 24.948386,
    "lon": -98.792677,
    "region": "CA"
  },
  {
    "display_name": "New Bonnie \u2013 Sharon Island \u2013 Beach",
    "city": "New Bonnie",
    "name": "Sharon Island",
    "type": "beach",
    "lat": 44.860509,
    "lon": -62.369714,
    "region": "CA"
  },
  {
    "display_name": "Lake Lori \u2013 Owens Garden \u2013 City",
    "city": "Lake Lori",
    "name": "Owens Garden",
    "type": "city",
    "lat": 45.452661,
    "lon": -99.166925,
    "region": "LA"
  },
  {
    "display_name": "Murrayhaven \u2013 Parker Key \u2013 Park",
    "city": "Murrayhaven",
    "name": "Parker Key",
    "type": "park",
    "lat": 26.855656,
    "lon": -94.439355,
    "region": "FL"
  },
  {
    "display_name": "West Denisefurt \u2013 Tammy Meadows \u2013 Beach",
    "city": "West Denisefurt",
    "name": "Tammy Meadows",
    "type": "beach",
    "lat": 24.905162,
    "lon": -109.633702,
    "region": "FL"
  },
  {
    "display_name": "New Ronald \u2013 Sullivan Fort \u2013 City",
    "city": "New Ronald",
    "name": "Sullivan Fort",
    "type": "city",
    "lat": 10.937111,
    "lon": -101.545646,
    "region": "FL"
  },
  {
    "display_name": "East Elizabeth \u2013 Daniel Neck \u2013 City",
    "city": "East Elizabeth",
    "name": "Daniel Neck",
    "type": "city",
    "lat": 37.898737,
    "lon": -128.103063,
    "region": "FL"
  },
  {
    "display_name": "Francochester \u2013 Roberts Road \u2013 Campground",
    "city": "Francochester",
    "name": "Roberts Road",
    "type": "campground",
    "lat": 49.4606,
    "lon": -78.215006,
    "region": "BC"
  },
  {
    "display_name": "New Joseph \u2013 Stevens Loaf \u2013 Park",
    "city": "New Joseph",
    "name": "Stevens Loaf",
    "type": "park",
    "lat": 56.326711,
    "lon": -77.943988,
    "region": "BC"
  },
  {
    "display_name": "Port Julian \u2013 Johnson Village \u2013 Boat Ramp",
    "city": "Port Julian",
    "name": "Johnson Village",
    "type": "boat_ramp",
    "lat": 17.861075,
    "lon": -80.401678,
    "region": "BC"
  },
  {
    "display_name": "Wayneport \u2013 Barbara Falls \u2013 Pier",
    "city": "Wayneport",
    "name": "Barbara Falls",
    "type": "pier",
    "lat": 14.488474,
    "lon": -99.062644,
    "region": "CA"
  },
  {
    "display_name": "Garzastad \u2013 Jackson Plaza \u2013 Boat Ramp",
    "city": "Garzastad",
    "name": "Jackson Plaza",
    "type": "boat_ramp",
    "lat": 30.224687,
    "lon": -76.107702,
    "region": "CAR"
  },
  {
    "display_name": "North Shannonbury \u2013 Ashley Skyway \u2013 Beach",
    "city": "North Shannonbury",
    "name": "Ashley Skyway",
    "type": "beach",
    "lat": 20.120755,
    "lon": -124.169567,
    "region": "CA"
  },
  {
    "display_name": "Port Maria \u2013 Leonard Locks \u2013 City",
    "city": "Port Maria",
    "name": "Leonard Locks",
    "type": "city",
    "lat": 15.854915,
    "lon": -127.214021,
    "region": "CAR"
  },
  {
    "display_name": "New Vanessaside \u2013 Janet Spurs \u2013 Boat Ramp",
    "city": "New Vanessaside",
    "name": "Janet Spurs",
    "type": "boat_ramp",
    "lat": 22.885613,
    "lon": -130.690343,
    "region": "LA"
  },
  {
    "display_name": "North Pennybury \u2013 Michael Run \u2013 Park",
    "city": "North Pennybury",
    "name": "Michael Run",
    "type": "park",
    "lat": 43.602642,
    "lon": -127.345338,
    "region": "MX"
  },
  {
    "display_name": "Lisabury \u2013 Johnson Park \u2013 Beach",
    "city": "Lisabury",
    "name": "Johnson Park",
    "type": "beach",
    "lat": 53.040671,
    "lon": -88.841206,
    "region": "NC"
  },
  {
    "display_name": "Jerryborough \u2013 Garza Ridge \u2013 Campground",
    "city": "Jerryborough",
    "name": "Garza Ridge",
    "type": "campground",
    "lat": 12.916048,
    "lon": -114.193107,
    "region": "NC"
  },
  {
    "display_name": "South Brittanymouth \u2013 Aguilar Unions \u2013 Pier",
    "city": "South Brittanymouth",
    "name": "Aguilar Unions",
    "type": "pier",
    "lat": 47.665663,
    "lon": -76.795507,
    "region": "LA"
  },
  {
    "display_name": "Kellyhaven \u2013 Neal Square \u2013 City",
    "city": "Kellyhaven",
    "name": "Neal Square",
    "type": "city",
    "lat": 27.674985,
    "lon": -88.174979,
    "region": "NY"
  },
  {
    "display_name": "Lukeport \u2013 Hayes Hollow \u2013 Campground",
    "city": "Lukeport",
    "name": "Hayes Hollow",
    "type": "campground",
    "lat": 12.530176,
    "lon": -60.724804,
    "region": "LA"
  },
  {
    "display_name": "Port Peter \u2013 Anthony Forest \u2013 Inlet",
    "city": "Port Peter",
    "name": "Anthony Forest",
    "type": "inlet",
    "lat": 31.887105,
    "lon": -96.341063,
    "region": "MX"
  },
  {
    "display_name": "East Shane \u2013 Miller Stravenue \u2013 City",
    "city": "East Shane",
    "name": "Miller Stravenue",
    "type": "city",
    "lat": 44.473788,
    "lon": -91.425996,
    "region": "MX"
  },
  {
    "display_name": "Wisechester \u2013 Jack Springs \u2013 Boat Ramp",
    "city": "Wisechester",
    "name": "Jack Springs",
    "type": "boat_ramp",
    "lat": 23.695622,
    "lon": -130.457674,
    "region": "CA"
  },
  {
    "display_name": "West Brandonberg \u2013 Solis Mews \u2013 Inlet",
    "city": "West Brandonberg",
    "name": "Solis Mews",
    "type": "inlet",
    "lat": 10.671,
    "lon": -123.313217,
    "region": "NC"
  },
  {
    "display_name": "West Kathy \u2013 Williams Rapids \u2013 Inlet",
    "city": "West Kathy",
    "name": "Williams Rapids",
    "type": "inlet",
    "lat": 20.785817,
    "lon": -121.433059,
    "region": "NC"
  },
  {
    "display_name": "South Rebeccaland \u2013 Abbott Plaza \u2013 Park",
    "city": "South Rebeccaland",
    "name": "Abbott Plaza",
    "type": "park",
    "lat": 10.570581,
    "lon": -127.637635,
    "region": "TX"
  },
  {
    "display_name": "East Brent \u2013 Floyd Centers \u2013 Pier",
    "city": "East Brent",
    "name": "Floyd Centers",
    "type": "pier",
    "lat": 26.979808,
    "lon": -143.507974,
    "region": "NC"
  },
  {
    "display_name": "Campbellburgh \u2013 Huang Road \u2013 Pier",
    "city": "Campbellburgh",
    "name": "Huang Road",
    "type": "pier",
    "lat": 27.425044,
    "lon": -114.604966,
    "region": "CA"
  },
  {
    "display_name": "New Sydney \u2013 Elizabeth Freeway \u2013 City",
    "city": "New Sydney",
    "name": "Elizabeth Freeway",
    "type": "city",
    "lat": 52.263102,
    "lon": -97.678772,
    "region": "NY"
  },
  {
    "display_name": "South Johnmouth \u2013 Cline Coves \u2013 Inlet",
    "city": "South Johnmouth",
    "name": "Cline Coves",
    "type": "inlet",
    "lat": 22.858971,
    "lon": -140.963378,
    "region": "CAR"
  },
  {
    "display_name": "Knoxstad \u2013 Burns Via \u2013 City",
    "city": "Knoxstad",
    "name": "Burns Via",
    "type": "city",
    "lat": 39.982797,
    "lon": -130.489829,
    "region": "NC"
  },
  {
    "display_name": "East Matthew \u2013 Cathy Glen \u2013 Beach",
    "city": "East Matthew",
    "name": "Cathy Glen",
    "type": "beach",
    "lat": 15.848506,
    "lon": -123.360073,
    "region": "MX"
  },
  {
    "display_name": "Port Danielstad \u2013 Luis Terrace \u2013 Beach",
    "city": "Port Danielstad",
    "name": "Luis Terrace",
    "type": "beach",
    "lat": 20.804333,
    "lon": -133.536296,
    "region": "CAR"
  },
  {
    "display_name": "Lake James \u2013 Clark Stream \u2013 Beach",
    "city": "Lake James",
    "name": "Clark Stream",
    "type": "beach",
    "lat": 22.684813,
    "lon": -149.842196,
    "region": "CA"
  },
  {
    "display_name": "Lake Stephanie \u2013 Taylor Glen \u2013 Boat Ramp",
    "city": "Lake Stephanie",
    "name": "Taylor Glen",
    "type": "boat_ramp",
    "lat": 47.04133,
    "lon": -95.609574,
    "region": "BC"
  },
  {
    "display_name": "Samanthahaven \u2013 Paul Parkways \u2013 Pier",
    "city": "Samanthahaven",
    "name": "Paul Parkways",
    "type": "pier",
    "lat": 59.018113,
    "lon": -133.730273,
    "region": "NC"
  },
  {
    "display_name": "North Charles \u2013 Wolfe Lane \u2013 Pier",
    "city": "North Charles",
    "name": "Wolfe Lane",
    "type": "pier",
    "lat": 39.953755,
    "lon": -92.388674,
    "region": "NC"
  },
  {
    "display_name": "Myerstown \u2013 Erin Meadow \u2013 Boat Ramp",
    "city": "Myerstown",
    "name": "Erin Meadow",
    "type": "boat_ramp",
    "lat": 26.135097,
    "lon": -136.767156,
    "region": "TX"
  },
  {
    "display_name": "Matthewton \u2013 Mary Lodge \u2013 City",
    "city": "Matthewton",
    "name": "Mary Lodge",
    "type": "city",
    "lat": 14.396968,
    "lon": -142.686774,
    "region": "CAR"
  },
  {
    "display_name": "Emilystad \u2013 Monica Brooks \u2013 City",
    "city": "Emilystad",
    "name": "Monica Brooks",
    "type": "city",
    "lat": 52.799465,
    "lon": -85.38469,
    "region": "CAR"
  },
  {
    "display_name": "New Adamtown \u2013 Palmer Fall \u2013 Boat Ramp",
    "city": "New Adamtown",
    "name": "Palmer Fall",
    "type": "boat_ramp",
    "lat": 46.821543,
    "lon": -141.39533,
    "region": "TX"
  },
  {
    "display_name": "Vasqueztown \u2013 Scott Field \u2013 Beach",
    "city": "Vasqueztown",
    "name": "Scott Field",
    "type": "beach",
    "lat": 13.275117,
    "lon": -106.449586,
    "region": "ON"
  },
  {
    "display_name": "New Christopher \u2013 John Forest \u2013 Inlet",
    "city": "New Christopher",
    "name": "John Forest",
    "type": "inlet",
    "lat": 11.304957,
    "lon": -125.003977,
    "region": "FL"
  },
  {
    "display_name": "Michaelside \u2013 Melissa Garden \u2013 Campground",
    "city": "Michaelside",
    "name": "Melissa Garden",
    "type": "campground",
    "lat": 34.746895,
    "lon": -130.233152,
    "region": "TX"
  },
  {
    "display_name": "Lake Benjaminmouth \u2013 Garrett Station \u2013 Pier",
    "city": "Lake Benjaminmouth",
    "name": "Garrett Station",
    "type": "pier",
    "lat": 54.000077,
    "lon": -115.069364,
    "region": "MX"
  },
  {
    "display_name": "Jessicaville \u2013 Matthew Bypass \u2013 Boat Ramp",
    "city": "Jessicaville",
    "name": "Matthew Bypass",
    "type": "boat_ramp",
    "lat": 37.678165,
    "lon": -121.170284,
    "region": "CA"
  },
  {
    "display_name": "Jonathanshire \u2013 Annette Lock \u2013 Boat Ramp",
    "city": "Jonathanshire",
    "name": "Annette Lock",
    "type": "boat_ramp",
    "lat": 21.585769,
    "lon": -117.122803,
    "region": "FL"
  },
  {
    "display_name": "Brandyton \u2013 Perkins Ferry \u2013 Pier",
    "city": "Brandyton",
    "name": "Perkins Ferry",
    "type": "pier",
    "lat": 28.452937,
    "lon": -97.34313,
    "region": "MX"
  },
  {
    "display_name": "New Carol \u2013 Melanie Divide \u2013 Boat Ramp",
    "city": "New Carol",
    "name": "Melanie Divide",
    "type": "boat_ramp",
    "lat": 58.797182,
    "lon": -70.128695,
    "region": "FL"
  },
  {
    "display_name": "Sonyamouth \u2013 Ashley Lakes \u2013 Boat Ramp",
    "city": "Sonyamouth",
    "name": "Ashley Lakes",
    "type": "boat_ramp",
    "lat": 55.356587,
    "lon": -90.348193,
    "region": "NY"
  },
  {
    "display_name": "North Carloshaven \u2013 Richard Freeway \u2013 Beach",
    "city": "North Carloshaven",
    "name": "Richard Freeway",
    "type": "beach",
    "lat": 31.175986,
    "lon": -120.45762,
    "region": "LA"
  },
  {
    "display_name": "Mariatown \u2013 John Rapids \u2013 Campground",
    "city": "Mariatown",
    "name": "John Rapids",
    "type": "campground",
    "lat": 22.020448,
    "lon": -132.428144,
    "region": "BC"
  },
  {
    "display_name": "Millershire \u2013 Jennifer Islands \u2013 Beach",
    "city": "Millershire",
    "name": "Jennifer Islands",
    "type": "beach",
    "lat": 49.92674,
    "lon": -73.738284,
    "region": "CAR"
  },
  {
    "display_name": "Phillipport \u2013 Kyle Light \u2013 Campground",
    "city": "Phillipport",
    "name": "Kyle Light",
    "type": "campground",
    "lat": 53.441991,
    "lon": -124.316616,
    "region": "ON"
  },
  {
    "display_name": "Hoffmanbury \u2013 Sean Plaza \u2013 Inlet",
    "city": "Hoffmanbury",
    "name": "Sean Plaza",
    "type": "inlet",
    "lat": 36.024512,
    "lon": -109.522136,
    "region": "MX"
  },
  {
    "display_name": "Andrewport \u2013 Cheryl Shoal \u2013 Pier",
    "city": "Andrewport",
    "name": "Cheryl Shoal",
    "type": "pier",
    "lat": 18.181857,
    "lon": -81.287573,
    "region": "CAR"
  },
  {
    "display_name": "Nicoleton \u2013 Caldwell Orchard \u2013 City",
    "city": "Nicoleton",
    "name": "Caldwell Orchard",
    "type": "city",
    "lat": 17.564619,
    "lon": -109.920081,
    "region": "CA"
  },
  {
    "display_name": "South Roy \u2013 Smith Terrace \u2013 City",
    "city": "South Roy",
    "name": "Smith Terrace",
    "type": "city",
    "lat": 57.481802,
    "lon": -133.317865,
    "region": "BC"
  },
  {
    "display_name": "Sandovalmouth \u2013 Phillips Ports \u2013 Pier",
    "city": "Sandovalmouth",
    "name": "Phillips Ports",
    "type": "pier",
    "lat": 20.17952,
    "lon": -83.889803,
    "region": "MX"
  },
  {
    "display_name": "West Stephanie \u2013 Allen Squares \u2013 City",
    "city": "West Stephanie",
    "name": "Allen Squares",
    "type": "city",
    "lat": 46.236774,
    "lon": -138.512772,
    "region": "CA"
  },
  {
    "display_name": "South Jeffrey \u2013 Timothy Mountains \u2013 Campground",
    "city": "South Jeffrey",
    "name": "Timothy Mountains",
    "type": "campground",
    "lat": 57.151716,
    "lon": -86.500779,
    "region": "FL"
  },
  {
    "display_name": "New Nicole \u2013 Carolyn Ports \u2013 Campground",
    "city": "New Nicole",
    "name": "Carolyn Ports",
    "type": "campground",
    "lat": 35.200998,
    "lon": -111.802059,
    "region": "NC"
  },
  {
    "display_name": "Port Williamshire \u2013 White Plains \u2013 Pier",
    "city": "Port Williamshire",
    "name": "White Plains",
    "type": "pier",
    "lat": 42.403351,
    "lon": -143.064233,
    "region": "TX"
  },
  {
    "display_name": "Lake Karen \u2013 Kyle Greens \u2013 Beach",
    "city": "Lake Karen",
    "name": "Kyle Greens",
    "type": "beach",
    "lat": 11.101928,
    "lon": -87.009414,
    "region": "LA"
  },
  {
    "display_name": "Allenview \u2013 Jessica Passage \u2013 Beach",
    "city": "Allenview",
    "name": "Jessica Passage",
    "type": "beach",
    "lat": 47.860323,
    "lon": -134.889645,
    "region": "LA"
  },
  {
    "display_name": "Williamsstad \u2013 William Summit \u2013 Beach",
    "city": "Williamsstad",
    "name": "William Summit",
    "type": "beach",
    "lat": 24.039091,
    "lon": -111.069742,
    "region": "BC"
  },
  {
    "display_name": "Thomasfurt \u2013 Tucker Burg \u2013 Inlet",
    "city": "Thomasfurt",
    "name": "Tucker Burg",
    "type": "inlet",
    "lat": 42.595615,
    "lon": -74.389269,
    "region": "CAR"
  },
  {
    "display_name": "Douglasfort \u2013 Patel Passage \u2013 City",
    "city": "Douglasfort",
    "name": "Patel Passage",
    "type": "city",
    "lat": 45.310288,
    "lon": -84.599964,
    "region": "NC"
  },
  {
    "display_name": "Hamiltonview \u2013 Katelyn Burg \u2013 City",
    "city": "Hamiltonview",
    "name": "Katelyn Burg",
    "type": "city",
    "lat": 40.647399,
    "lon": -99.246449,
    "region": "LA"
  },
  {
    "display_name": "Sarahland \u2013 Heather Ways \u2013 Pier",
    "city": "Sarahland",
    "name": "Heather Ways",
    "type": "pier",
    "lat": 50.651578,
    "lon": -124.162011,
    "region": "BC"
  },
  {
    "display_name": "North Kylemouth \u2013 Brown Shoal \u2013 Campground",
    "city": "North Kylemouth",
    "name": "Brown Shoal",
    "type": "campground",
    "lat": 52.906246,
    "lon": -141.868669,
    "region": "CAR"
  },
  {
    "display_name": "Port Melissa \u2013 Albert Squares \u2013 Campground",
    "city": "Port Melissa",
    "name": "Albert Squares",
    "type": "campground",
    "lat": 39.330395,
    "lon": -79.667706,
    "region": "NC"
  },
  {
    "display_name": "Bellborough \u2013 Welch Summit \u2013 Park",
    "city": "Bellborough",
    "name": "Welch Summit",
    "type": "park",
    "lat": 20.045033,
    "lon": -107.163959,
    "region": "FL"
  },
  {
    "display_name": "South Angelabury \u2013 Tucker Alley \u2013 Pier",
    "city": "South Angelabury",
    "name": "Tucker Alley",
    "type": "pier",
    "lat": 25.275733,
    "lon": -115.44668,
    "region": "NC"
  },
  {
    "display_name": "Benjaminton \u2013 Walters Row \u2013 Beach",
    "city": "Benjaminton",
    "name": "Walters Row",
    "type": "beach",
    "lat": 39.845241,
    "lon": -121.592591,
    "region": "FL"
  },
  {
    "display_name": "New John \u2013 Hudson Mews \u2013 Boat Ramp",
    "city": "New John",
    "name": "Hudson Mews",
    "type": "boat_ramp",
    "lat": 35.643175,
    "lon": -141.658591,
    "region": "TX"
  },
  {
    "display_name": "Lindaport \u2013 Charles Trail \u2013 Inlet",
    "city": "Lindaport",
    "name": "Charles Trail",
    "type": "inlet",
    "lat": 38.225502,
    "lon": -107.11144,
    "region": "FL"
  },
  {
    "display_name": "East Loriborough \u2013 Gutierrez Forest \u2013 Pier",
    "city": "East Loriborough",
    "name": "Gutierrez Forest",
    "type": "pier",
    "lat": 31.411829,
    "lon": -110.320272,
    "region": "NY"
  },
  {
    "display_name": "Lake Tanya \u2013 Mark Knoll \u2013 Park",
    "city": "Lake Tanya",
    "name": "Mark Knoll",
    "type": "park",
    "lat": 44.449403,
    "lon": -119.882958,
    "region": "LA"
  },
  {
    "display_name": "New Robert \u2013 John Way \u2013 Boat Ramp",
    "city": "New Robert",
    "name": "John Way",
    "type": "boat_ramp",
    "lat": 48.107592,
    "lon": -103.124489,
    "region": "MX"
  },
  {
    "display_name": "Colleenbury \u2013 Potter Path \u2013 Pier",
    "city": "Colleenbury",
    "name": "Potter Path",
    "type": "pier",
    "lat": 26.816267,
    "lon": -118.870523,
    "region": "FL"
  },
  {
    "display_name": "North Rebecca \u2013 Tammie Parkways \u2013 Inlet",
    "city": "North Rebecca",
    "name": "Tammie Parkways",
    "type": "inlet",
    "lat": 18.398681,
    "lon": -145.333476,
    "region": "NY"
  },
  {
    "display_name": "West Duaneside \u2013 Miller Mountain \u2013 Inlet",
    "city": "West Duaneside",
    "name": "Miller Mountain",
    "type": "inlet",
    "lat": 26.182489,
    "lon": -68.758334,
    "region": "NY"
  },
  {
    "display_name": "West Rachel \u2013 Yolanda Point \u2013 Inlet",
    "city": "West Rachel",
    "name": "Yolanda Point",
    "type": "inlet",
    "lat": 41.821783,
    "lon": -143.554412,
    "region": "NY"
  },
  {
    "display_name": "Josephside \u2013 Matthew Mission \u2013 Beach",
    "city": "Josephside",
    "name": "Matthew Mission",
    "type": "beach",
    "lat": 50.832804,
    "lon": -121.516074,
    "region": "CA"
  },
  {
    "display_name": "Deanfort \u2013 Chavez Manor \u2013 Beach",
    "city": "Deanfort",
    "name": "Chavez Manor",
    "type": "beach",
    "lat": 26.863881,
    "lon": -83.797109,
    "region": "BC"
  },
  {
    "display_name": "Lake Frankland \u2013 Robinson Green \u2013 Park",
    "city": "Lake Frankland",
    "name": "Robinson Green",
    "type": "park",
    "lat": 17.966999,
    "lon": -92.089182,
    "region": "CAR"
  },
  {
    "display_name": "Caitlinshire \u2013 Jeremy Center \u2013 Boat Ramp",
    "city": "Caitlinshire",
    "name": "Jeremy Center",
    "type": "boat_ramp",
    "lat": 27.861357,
    "lon": -107.87904,
    "region": "NY"
  },
  {
    "display_name": "Johnsonfort \u2013 Ronald Road \u2013 Pier",
    "city": "Johnsonfort",
    "name": "Ronald Road",
    "type": "pier",
    "lat": 42.151832,
    "lon": -118.219303,
    "region": "CA"
  },
  {
    "display_name": "Sandraborough \u2013 Geoffrey Villages \u2013 Boat Ramp",
    "city": "Sandraborough",
    "name": "Geoffrey Villages",
    "type": "boat_ramp",
    "lat": 19.162925,
    "lon": -81.068853,
    "region": "BC"
  },
  {
    "display_name": "Stevenburgh \u2013 Davidson Village \u2013 Beach",
    "city": "Stevenburgh",
    "name": "Davidson Village",
    "type": "beach",
    "lat": 43.417232,
    "lon": -76.095736,
    "region": "LA"
  },
  {
    "display_name": "Davidborough \u2013 Janice Roads \u2013 Park",
    "city": "Davidborough",
    "name": "Janice Roads",
    "type": "park",
    "lat": 21.722971,
    "lon": -85.644665,
    "region": "ON"
  },
  {
    "display_name": "Watsonhaven \u2013 Richard Motorway \u2013 Boat Ramp",
    "city": "Watsonhaven",
    "name": "Richard Motorway",
    "type": "boat_ramp",
    "lat": 25.88566,
    "lon": -135.458083,
    "region": "MX"
  },
  {
    "display_name": "Gonzalesborough \u2013 Steven Dale \u2013 Campground",
    "city": "Gonzalesborough",
    "name": "Steven Dale",
    "type": "campground",
    "lat": 16.641482,
    "lon": -140.907196,
    "region": "BC"
  },
  {
    "display_name": "Munozstad \u2013 Mills Road \u2013 Inlet",
    "city": "Munozstad",
    "name": "Mills Road",
    "type": "inlet",
    "lat": 24.112719,
    "lon": -83.117565,
    "region": "FL"
  },
  {
    "display_name": "Port Rickyland \u2013 Shepherd Park \u2013 Boat Ramp",
    "city": "Port Rickyland",
    "name": "Shepherd Park",
    "type": "boat_ramp",
    "lat": 19.114807,
    "lon": -71.379461,
    "region": "CAR"
  },
  {
    "display_name": "Sandrachester \u2013 Burgess Plains \u2013 Campground",
    "city": "Sandrachester",
    "name": "Burgess Plains",
    "type": "campground",
    "lat": 41.785115,
    "lon": -60.450587,
    "region": "BC"
  },
  {
    "display_name": "South Anthonyshire \u2013 Melissa Crest \u2013 Campground",
    "city": "South Anthonyshire",
    "name": "Melissa Crest",
    "type": "campground",
    "lat": 34.12211,
    "lon": -129.2518,
    "region": "CAR"
  },
  {
    "display_name": "Victorland \u2013 James Branch \u2013 Inlet",
    "city": "Victorland",
    "name": "James Branch",
    "type": "inlet",
    "lat": 24.615271,
    "lon": -115.634513,
    "region": "FL"
  },
  {
    "display_name": "East Jodyville \u2013 Sheila Fork \u2013 Pier",
    "city": "East Jodyville",
    "name": "Sheila Fork",
    "type": "pier",
    "lat": 13.037813,
    "lon": -93.39677,
    "region": "ON"
  },
  {
    "display_name": "Oneillmouth \u2013 Matthew Manors \u2013 Park",
    "city": "Oneillmouth",
    "name": "Matthew Manors",
    "type": "park",
    "lat": 44.76376,
    "lon": -81.016711,
    "region": "MX"
  },
  {
    "display_name": "Nicolestad \u2013 Brandon Turnpike \u2013 Campground",
    "city": "Nicolestad",
    "name": "Brandon Turnpike",
    "type": "campground",
    "lat": 34.688659,
    "lon": -102.139851,
    "region": "NC"
  },
  {
    "display_name": "Kleintown \u2013 John Spring \u2013 City",
    "city": "Kleintown",
    "name": "John Spring",
    "type": "city",
    "lat": 10.574427,
    "lon": -114.691258,
    "region": "ON"
  },
  {
    "display_name": "Kellyburgh \u2013 Raymond Glens \u2013 Pier",
    "city": "Kellyburgh",
    "name": "Raymond Glens",
    "type": "pier",
    "lat": 27.86133,
    "lon": -97.078609,
    "region": "NC"
  },
  {
    "display_name": "Bairdfurt \u2013 Stafford Mill \u2013 Pier",
    "city": "Bairdfurt",
    "name": "Stafford Mill",
    "type": "pier",
    "lat": 53.30181,
    "lon": -88.368369,
    "region": "NY"
  },
  {
    "display_name": "Port Matthew \u2013 Wang Key \u2013 Campground",
    "city": "Port Matthew",
    "name": "Wang Key",
    "type": "campground",
    "lat": 37.115263,
    "lon": -72.834356,
    "region": "TX"
  },
  {
    "display_name": "Port Jeffery \u2013 Gary Divide \u2013 City",
    "city": "Port Jeffery",
    "name": "Gary Divide",
    "type": "city",
    "lat": 12.656689,
    "lon": -129.150083,
    "region": "ON"
  },
  {
    "display_name": "Port Raymondbury \u2013 Nathan Stream \u2013 Inlet",
    "city": "Port Raymondbury",
    "name": "Nathan Stream",
    "type": "inlet",
    "lat": 19.781902,
    "lon": -147.201397,
    "region": "NC"
  },
  {
    "display_name": "Ramosburgh \u2013 Amy Cliff \u2013 Beach",
    "city": "Ramosburgh",
    "name": "Amy Cliff",
    "type": "beach",
    "lat": 58.563899,
    "lon": -67.572453,
    "region": "LA"
  },
  {
    "display_name": "Port Laurenmouth \u2013 Jane Islands \u2013 Boat Ramp",
    "city": "Port Laurenmouth",
    "name": "Jane Islands",
    "type": "boat_ramp",
    "lat": 45.097536,
    "lon": -80.842059,
    "region": "CAR"
  },
  {
    "display_name": "Davisview \u2013 Joseph Ways \u2013 Inlet",
    "city": "Davisview",
    "name": "Joseph Ways",
    "type": "inlet",
    "lat": 46.316644,
    "lon": -146.077689,
    "region": "LA"
  },
  {
    "display_name": "East Danielshire \u2013 Jones Manor \u2013 Pier",
    "city": "East Danielshire",
    "name": "Jones Manor",
    "type": "pier",
    "lat": 51.400105,
    "lon": -88.000327,
    "region": "TX"
  },
  {
    "display_name": "Port Margaret \u2013 Tina Drive \u2013 Park",
    "city": "Port Margaret",
    "name": "Tina Drive",
    "type": "park",
    "lat": 56.921959,
    "lon": -104.133229,
    "region": "CAR"
  },
  {
    "display_name": "New Alexandria \u2013 Camacho Inlet \u2013 Park",
    "city": "New Alexandria",
    "name": "Camacho Inlet",
    "type": "park",
    "lat": 49.659554,
    "lon": -128.883549,
    "region": "ON"
  },
  {
    "display_name": "Lake Darrell \u2013 Laura Pines \u2013 Beach",
    "city": "Lake Darrell",
    "name": "Laura Pines",
    "type": "beach",
    "lat": 23.553366,
    "lon": -115.544861,
    "region": "BC"
  },
  {
    "display_name": "South Kimberlyside \u2013 Jill Ways \u2013 Campground",
    "city": "South Kimberlyside",
    "name": "Jill Ways",
    "type": "campground",
    "lat": 40.39568,
    "lon": -81.26885,
    "region": "MX"
  },
  {
    "display_name": "Snydertown \u2013 Michael Harbors \u2013 Pier",
    "city": "Snydertown",
    "name": "Michael Harbors",
    "type": "pier",
    "lat": 44.676244,
    "lon": -92.062141,
    "region": "ON"
  },
  {
    "display_name": "Port Mariahmouth \u2013 Cheryl Greens \u2013 Boat Ramp",
    "city": "Port Mariahmouth",
    "name": "Cheryl Greens",
    "type": "boat_ramp",
    "lat": 50.161443,
    "lon": -138.310388,
    "region": "CAR"
  },
  {
    "display_name": "East Robert \u2013 Hill Shoals \u2013 Inlet",
    "city": "East Robert",
    "name": "Hill Shoals",
    "type": "inlet",
    "lat": 32.272416,
    "lon": -143.949676,
    "region": "CAR"
  },
  {
    "display_name": "Millermouth \u2013 Cochran Vista \u2013 Pier",
    "city": "Millermouth",
    "name": "Cochran Vista",
    "type": "pier",
    "lat": 23.707468,
    "lon": -112.282792,
    "region": "FL"
  },
  {
    "display_name": "Simsfort \u2013 Robin Lock \u2013 Beach",
    "city": "Simsfort",
    "name": "Robin Lock",
    "type": "beach",
    "lat": 28.7083,
    "lon": -75.358704,
    "region": "MX"
  },
  {
    "display_name": "Eugenemouth \u2013 Jessica Prairie \u2013 Pier",
    "city": "Eugenemouth",
    "name": "Jessica Prairie",
    "type": "pier",
    "lat": 17.681125,
    "lon": -118.357337,
    "region": "CAR"
  },
  {
    "display_name": "South Kyleshire \u2013 Mack Islands \u2013 Park",
    "city": "South Kyleshire",
    "name": "Mack Islands",
    "type": "park",
    "lat": 12.499323,
    "lon": -110.689087,
    "region": "FL"
  },
  {
    "display_name": "Jameschester \u2013 Barker Land \u2013 Inlet",
    "city": "Jameschester",
    "name": "Barker Land",
    "type": "inlet",
    "lat": 47.682245,
    "lon": -99.301856,
    "region": "LA"
  },
  {
    "display_name": "Port Patricia \u2013 Andre Underpass \u2013 Park",
    "city": "Port Patricia",
    "name": "Andre Underpass",
    "type": "park",
    "lat": 17.744302,
    "lon": -140.481298,
    "region": "NY"
  },
  {
    "display_name": "Brandonland \u2013 Espinoza Brook \u2013 Park",
    "city": "Brandonland",
    "name": "Espinoza Brook",
    "type": "park",
    "lat": 31.975282,
    "lon": -111.227717,
    "region": "NC"
  },
  {
    "display_name": "West Shawnberg \u2013 Sharon Lock \u2013 Boat Ramp",
    "city": "West Shawnberg",
    "name": "Sharon Lock",
    "type": "boat_ramp",
    "lat": 45.567395,
    "lon": -125.253816,
    "region": "TX"
  },
  {
    "display_name": "Sandovalchester \u2013 Mandy Stravenue \u2013 Park",
    "city": "Sandovalchester",
    "name": "Mandy Stravenue",
    "type": "park",
    "lat": 38.468101,
    "lon": -107.006918,
    "region": "NC"
  },
  {
    "display_name": "North Natalie \u2013 Cheryl Route \u2013 Campground",
    "city": "North Natalie",
    "name": "Cheryl Route",
    "type": "campground",
    "lat": 47.320306,
    "lon": -138.727752,
    "region": "NC"
  },
  {
    "display_name": "Gregoryfort \u2013 Bennett Drives \u2013 Inlet",
    "city": "Gregoryfort",
    "name": "Bennett Drives",
    "type": "inlet",
    "lat": 30.637492,
    "lon": -127.245319,
    "region": "TX"
  },
  {
    "display_name": "Hoganfort \u2013 Lori Circle \u2013 Inlet",
    "city": "Hoganfort",
    "name": "Lori Circle",
    "type": "inlet",
    "lat": 25.052542,
    "lon": -137.032387,
    "region": "BC"
  },
  {
    "display_name": "East Moniquemouth \u2013 David Expressway \u2013 Inlet",
    "city": "East Moniquemouth",
    "name": "David Expressway",
    "type": "inlet",
    "lat": 23.641927,
    "lon": -75.495021,
    "region": "MX"
  },
  {
    "display_name": "Jermaineton \u2013 Destiny Loaf \u2013 City",
    "city": "Jermaineton",
    "name": "Destiny Loaf",
    "type": "city",
    "lat": 10.26339,
    "lon": -125.816054,
    "region": "ON"
  },
  {
    "display_name": "Gambleshire \u2013 Hayley Islands \u2013 Inlet",
    "city": "Gambleshire",
    "name": "Hayley Islands",
    "type": "inlet",
    "lat": 20.816914,
    "lon": -91.163769,
    "region": "MX"
  },
  {
    "display_name": "Johnsonview \u2013 Ward Greens \u2013 City",
    "city": "Johnsonview",
    "name": "Ward Greens",
    "type": "city",
    "lat": 28.687121,
    "lon": -115.352613,
    "region": "ON"
  },
  {
    "display_name": "South Robert \u2013 Ochoa Fords \u2013 Boat Ramp",
    "city": "South Robert",
    "name": "Ochoa Fords",
    "type": "boat_ramp",
    "lat": 37.6333,
    "lon": -123.39718,
    "region": "LA"
  },
  {
    "display_name": "Kimberlyfurt \u2013 Mooney Villages \u2013 Beach",
    "city": "Kimberlyfurt",
    "name": "Mooney Villages",
    "type": "beach",
    "lat": 36.013644,
    "lon": -65.674516,
    "region": "NC"
  },
  {
    "display_name": "Millerport \u2013 Douglas Camp \u2013 Inlet",
    "city": "Millerport",
    "name": "Douglas Camp",
    "type": "inlet",
    "lat": 18.744338,
    "lon": -84.529658,
    "region": "MX"
  },
  {
    "display_name": "Lake Pamelaport \u2013 Perkins Views \u2013 Boat Ramp",
    "city": "Lake Pamelaport",
    "name": "Perkins Views",
    "type": "boat_ramp",
    "lat": 33.450576,
    "lon": -88.837836,
    "region": "CA"
  },
  {
    "display_name": "Andersenmouth \u2013 Meyer Green \u2013 Beach",
    "city": "Andersenmouth",
    "name": "Meyer Green",
    "type": "beach",
    "lat": 30.914734,
    "lon": -90.168862,
    "region": "FL"
  },
  {
    "display_name": "Port Alexander \u2013 Greene Well \u2013 Boat Ramp",
    "city": "Port Alexander",
    "name": "Greene Well",
    "type": "boat_ramp",
    "lat": 46.488358,
    "lon": -145.955674,
    "region": "ON"
  },
  {
    "display_name": "Port Nicole \u2013 Ronald Forges \u2013 Boat Ramp",
    "city": "Port Nicole",
    "name": "Ronald Forges",
    "type": "boat_ramp",
    "lat": 16.011999,
    "lon": -137.077413,
    "region": "MX"
  },
  {
    "display_name": "Jeffreychester \u2013 Horton Plain \u2013 Boat Ramp",
    "city": "Jeffreychester",
    "name": "Horton Plain",
    "type": "boat_ramp",
    "lat": 56.272136,
    "lon": -74.851364,
    "region": "BC"
  },
  {
    "display_name": "Lake Daniellefurt \u2013 James Lights \u2013 Beach",
    "city": "Lake Daniellefurt",
    "name": "James Lights",
    "type": "beach",
    "lat": 29.324776,
    "lon": -149.436772,
    "region": "CA"
  },
  {
    "display_name": "North Kimberlyside \u2013 Shane Extensions \u2013 Inlet",
    "city": "North Kimberlyside",
    "name": "Shane Extensions",
    "type": "inlet",
    "lat": 13.758314,
    "lon": -81.477461,
    "region": "LA"
  },
  {
    "display_name": "East Shannonside \u2013 Michael Curve \u2013 Beach",
    "city": "East Shannonside",
    "name": "Michael Curve",
    "type": "beach",
    "lat": 32.277534,
    "lon": -145.625154,
    "region": "CA"
  },
  {
    "display_name": "Suzanneberg \u2013 Alexandra Branch \u2013 Inlet",
    "city": "Suzanneberg",
    "name": "Alexandra Branch",
    "type": "inlet",
    "lat": 21.102508,
    "lon": -95.94977,
    "region": "FL"
  },
  {
    "display_name": "West Kara \u2013 Tommy Oval \u2013 Pier",
    "city": "West Kara",
    "name": "Tommy Oval",
    "type": "pier",
    "lat": 29.651387,
    "lon": -123.879728,
    "region": "ON"
  },
  {
    "display_name": "Melissaland \u2013 Brandon Throughway \u2013 City",
    "city": "Melissaland",
    "name": "Brandon Throughway",
    "type": "city",
    "lat": 18.454757,
    "lon": -141.842639,
    "region": "NC"
  },
  {
    "display_name": "South Kevinton \u2013 Matthew Village \u2013 City",
    "city": "South Kevinton",
    "name": "Matthew Village",
    "type": "city",
    "lat": 56.611058,
    "lon": -95.736794,
    "region": "CAR"
  },
  {
    "display_name": "Savannahview \u2013 Bruce Squares \u2013 Inlet",
    "city": "Savannahview",
    "name": "Bruce Squares",
    "type": "inlet",
    "lat": 50.599124,
    "lon": -72.215272,
    "region": "FL"
  },
  {
    "display_name": "Anthonybury \u2013 Charles Crossing \u2013 Pier",
    "city": "Anthonybury",
    "name": "Charles Crossing",
    "type": "pier",
    "lat": 37.475269,
    "lon": -134.053138,
    "region": "BC"
  },
  {
    "display_name": "New Rodneyview \u2013 Powers Forks \u2013 Pier",
    "city": "New Rodneyview",
    "name": "Powers Forks",
    "type": "pier",
    "lat": 15.881103,
    "lon": -140.637447,
    "region": "FL"
  },
  {
    "display_name": "New Timothyton \u2013 James Court \u2013 Inlet",
    "city": "New Timothyton",
    "name": "James Court",
    "type": "inlet",
    "lat": 28.679991,
    "lon": -118.590168,
    "region": "BC"
  },
  {
    "display_name": "Dawnmouth \u2013 Olsen Cliff \u2013 Park",
    "city": "Dawnmouth",
    "name": "Olsen Cliff",
    "type": "park",
    "lat": 28.757132,
    "lon": -61.978731,
    "region": "MX"
  },
  {
    "display_name": "Lake Andrew \u2013 Ramirez Terrace \u2013 Pier",
    "city": "Lake Andrew",
    "name": "Ramirez Terrace",
    "type": "pier",
    "lat": 36.51596,
    "lon": -129.051527,
    "region": "NC"
  },
  {
    "display_name": "West Robert \u2013 Allison Squares \u2013 Inlet",
    "city": "West Robert",
    "name": "Allison Squares",
    "type": "inlet",
    "lat": 40.473755,
    "lon": -67.001865,
    "region": "TX"
  },
  {
    "display_name": "New Peggymouth \u2013 Griffith Road \u2013 Campground",
    "city": "New Peggymouth",
    "name": "Griffith Road",
    "type": "campground",
    "lat": 12.967738,
    "lon": -63.764384,
    "region": "MX"
  },
  {
    "display_name": "New Debbie \u2013 Christina Trace \u2013 Campground",
    "city": "New Debbie",
    "name": "Christina Trace",
    "type": "campground",
    "lat": 10.333796,
    "lon": -119.475582,
    "region": "MX"
  },
  {
    "display_name": "New Kristopherstad \u2013 Alexander Creek \u2013 Pier",
    "city": "New Kristopherstad",
    "name": "Alexander Creek",
    "type": "pier",
    "lat": 43.616703,
    "lon": -137.826436,
    "region": "CA"
  },
  {
    "display_name": "North Whitneymouth \u2013 Thompson Overpass \u2013 Inlet",
    "city": "North Whitneymouth",
    "name": "Thompson Overpass",
    "type": "inlet",
    "lat": 28.455291,
    "lon": -91.752223,
    "region": "NC"
  },
  {
    "display_name": "Port Annafurt \u2013 Marie Coves \u2013 Campground",
    "city": "Port Annafurt",
    "name": "Marie Coves",
    "type": "campground",
    "lat": 56.262878,
    "lon": -113.927984,
    "region": "NY"
  },
  {
    "display_name": "Martinland \u2013 Megan Locks \u2013 Boat Ramp",
    "city": "Martinland",
    "name": "Megan Locks",
    "type": "boat_ramp",
    "lat": 41.207774,
    "lon": -88.829381,
    "region": "FL"
  },
  {
    "display_name": "Dillonside \u2013 Rodriguez Tunnel \u2013 Park",
    "city": "Dillonside",
    "name": "Rodriguez Tunnel",
    "type": "park",
    "lat": 13.803132,
    "lon": -81.438845,
    "region": "NC"
  },
  {
    "display_name": "Douglasshire \u2013 Shelby Spring \u2013 Campground",
    "city": "Douglasshire",
    "name": "Shelby Spring",
    "type": "campground",
    "lat": 45.38149,
    "lon": -115.75899,
    "region": "FL"
  },
  {
    "display_name": "Tarashire \u2013 Todd Manors \u2013 Pier",
    "city": "Tarashire",
    "name": "Todd Manors",
    "type": "pier",
    "lat": 24.524718,
    "lon": -131.281152,
    "region": "NC"
  },
  {
    "display_name": "Garciachester \u2013 Harper Tunnel \u2013 Pier",
    "city": "Garciachester",
    "name": "Harper Tunnel",
    "type": "pier",
    "lat": 19.264222,
    "lon": -87.92084,
    "region": "BC"
  },
  {
    "display_name": "Parksburgh \u2013 Heather Square \u2013 Campground",
    "city": "Parksburgh",
    "name": "Heather Square",
    "type": "campground",
    "lat": 58.725271,
    "lon": -117.92779,
    "region": "TX"
  },
  {
    "display_name": "Hobbsburgh \u2013 Mueller Fields \u2013 Park",
    "city": "Hobbsburgh",
    "name": "Mueller Fields",
    "type": "park",
    "lat": 19.731276,
    "lon": -99.32574,
    "region": "LA"
  },
  {
    "display_name": "Brianside \u2013 Castro Road \u2013 City",
    "city": "Brianside",
    "name": "Castro Road",
    "type": "city",
    "lat": 33.988949,
    "lon": -78.458028,
    "region": "CAR"
  },
  {
    "display_name": "New Sonyamouth \u2013 Kelly Canyon \u2013 Boat Ramp",
    "city": "New Sonyamouth",
    "name": "Kelly Canyon",
    "type": "boat_ramp",
    "lat": 13.405199,
    "lon": -116.116925,
    "region": "ON"
  },
  {
    "display_name": "North Leeberg \u2013 Jennifer Creek \u2013 Boat Ramp",
    "city": "North Leeberg",
    "name": "Jennifer Creek",
    "type": "boat_ramp",
    "lat": 16.706382,
    "lon": -148.194703,
    "region": "MX"
  },
  {
    "display_name": "Ellisborough \u2013 Kelly Isle \u2013 City",
    "city": "Ellisborough",
    "name": "Kelly Isle",
    "type": "city",
    "lat": 57.563525,
    "lon": -68.840094,
    "region": "NC"
  },
  {
    "display_name": "Nelsonberg \u2013 Mitchell Drives \u2013 Boat Ramp",
    "city": "Nelsonberg",
    "name": "Mitchell Drives",
    "type": "boat_ramp",
    "lat": 53.396262,
    "lon": -145.464001,
    "region": "CA"
  },
  {
    "display_name": "Glassberg \u2013 Barbara Valley \u2013 Park",
    "city": "Glassberg",
    "name": "Barbara Valley",
    "type": "park",
    "lat": 35.034799,
    "lon": -77.384267,
    "region": "FL"
  },
  {
    "display_name": "South Ryan \u2013 Ronald Roads \u2013 Inlet",
    "city": "South Ryan",
    "name": "Ronald Roads",
    "type": "inlet",
    "lat": 28.922489,
    "lon": -62.539387,
    "region": "MX"
  },
  {
    "display_name": "South Crystalburgh \u2013 Cheryl Meadows \u2013 Pier",
    "city": "South Crystalburgh",
    "name": "Cheryl Meadows",
    "type": "pier",
    "lat": 35.978855,
    "lon": -100.182533,
    "region": "TX"
  },
  {
    "display_name": "Meganmouth \u2013 Bird Land \u2013 Park",
    "city": "Meganmouth",
    "name": "Bird Land",
    "type": "park",
    "lat": 28.615568,
    "lon": -134.916019,
    "region": "LA"
  },
  {
    "display_name": "Lake Jason \u2013 Harris Ferry \u2013 Boat Ramp",
    "city": "Lake Jason",
    "name": "Harris Ferry",
    "type": "boat_ramp",
    "lat": 29.632605,
    "lon": -112.474015,
    "region": "TX"
  },
  {
    "display_name": "North Stephenchester \u2013 Smith Manors \u2013 Inlet",
    "city": "North Stephenchester",
    "name": "Smith Manors",
    "type": "inlet",
    "lat": 27.822195,
    "lon": -70.825181,
    "region": "BC"
  },
  {
    "display_name": "Gillmouth \u2013 Whitehead Crest \u2013 Beach",
    "city": "Gillmouth",
    "name": "Whitehead Crest",
    "type": "beach",
    "lat": 30.153042,
    "lon": -78.956422,
    "region": "LA"
  },
  {
    "display_name": "Lake Michaelmouth \u2013 Sullivan Cove \u2013 Inlet",
    "city": "Lake Michaelmouth",
    "name": "Sullivan Cove",
    "type": "inlet",
    "lat": 46.525263,
    "lon": -148.341638,
    "region": "CA"
  },
  {
    "display_name": "New Shelly \u2013 Oneill Islands \u2013 Beach",
    "city": "New Shelly",
    "name": "Oneill Islands",
    "type": "beach",
    "lat": 20.095297,
    "lon": -76.412735,
    "region": "NY"
  },
  {
    "display_name": "Tylerville \u2013 Parker Forge \u2013 Pier",
    "city": "Tylerville",
    "name": "Parker Forge",
    "type": "pier",
    "lat": 10.218903,
    "lon": -112.122618,
    "region": "ON"
  },
  {
    "display_name": "North Robertberg \u2013 Michael Ville \u2013 City",
    "city": "North Robertberg",
    "name": "Michael Ville",
    "type": "city",
    "lat": 42.276409,
    "lon": -62.795698,
    "region": "NC"
  },
  {
    "display_name": "Melissaberg \u2013 Dominguez Falls \u2013 Campground",
    "city": "Melissaberg",
    "name": "Dominguez Falls",
    "type": "campground",
    "lat": 29.460006,
    "lon": -60.601626,
    "region": "BC"
  },
  {
    "display_name": "New Nancyport \u2013 Beth Ports \u2013 Park",
    "city": "New Nancyport",
    "name": "Beth Ports",
    "type": "park",
    "lat": 16.472988,
    "lon": -116.936048,
    "region": "NC"
  },
  {
    "display_name": "West Andrewberg \u2013 Reyes View \u2013 Campground",
    "city": "West Andrewberg",
    "name": "Reyes View",
    "type": "campground",
    "lat": 49.831809,
    "lon": -110.253566,
    "region": "TX"
  },
  {
    "display_name": "West William \u2013 Lydia Throughway \u2013 Park",
    "city": "West William",
    "name": "Lydia Throughway",
    "type": "park",
    "lat": 36.597129,
    "lon": -131.455821,
    "region": "NC"
  },
  {
    "display_name": "Jeffreyville \u2013 Medina Turnpike \u2013 City",
    "city": "Jeffreyville",
    "name": "Medina Turnpike",
    "type": "city",
    "lat": 12.649077,
    "lon": -82.98299,
    "region": "BC"
  },
  {
    "display_name": "Noblehaven \u2013 Kimberly Turnpike \u2013 Beach",
    "city": "Noblehaven",
    "name": "Kimberly Turnpike",
    "type": "beach",
    "lat": 54.278774,
    "lon": -119.647326,
    "region": "LA"
  },
  {
    "display_name": "Michelleberg \u2013 King Underpass \u2013 Park",
    "city": "Michelleberg",
    "name": "King Underpass",
    "type": "park",
    "lat": 12.356691,
    "lon": -77.860559,
    "region": "LA"
  },
  {
    "display_name": "South Michaelshire \u2013 Brenda Forge \u2013 City",
    "city": "South Michaelshire",
    "name": "Brenda Forge",
    "type": "city",
    "lat": 22.176589,
    "lon": -111.818804,
    "region": "LA"
  },
  {
    "display_name": "Jamieville \u2013 Shepherd Drive \u2013 Beach",
    "city": "Jamieville",
    "name": "Shepherd Drive",
    "type": "beach",
    "lat": 31.996964,
    "lon": -73.49126,
    "region": "BC"
  },
  {
    "display_name": "Kington \u2013 Burns Tunnel \u2013 Beach",
    "city": "Kington",
    "name": "Burns Tunnel",
    "type": "beach",
    "lat": 42.944402,
    "lon": -109.901562,
    "region": "BC"
  },
  {
    "display_name": "Tonyton \u2013 Wood Creek \u2013 Park",
    "city": "Tonyton",
    "name": "Wood Creek",
    "type": "park",
    "lat": 56.085836,
    "lon": -60.7393,
    "region": "BC"
  },
  {
    "display_name": "Oliverport \u2013 Berry Lock \u2013 City",
    "city": "Oliverport",
    "name": "Berry Lock",
    "type": "city",
    "lat": 51.978689,
    "lon": -64.462548,
    "region": "FL"
  },
  {
    "display_name": "Lake Christopher \u2013 Kimberly Mountain \u2013 Inlet",
    "city": "Lake Christopher",
    "name": "Kimberly Mountain",
    "type": "inlet",
    "lat": 31.83087,
    "lon": -124.795348,
    "region": "NC"
  },
  {
    "display_name": "North Destinybury \u2013 Jones Spur \u2013 Campground",
    "city": "North Destinybury",
    "name": "Jones Spur",
    "type": "campground",
    "lat": 16.008509,
    "lon": -109.987434,
    "region": "LA"
  },
  {
    "display_name": "Emilyfurt \u2013 Hall Key \u2013 Beach",
    "city": "Emilyfurt",
    "name": "Hall Key",
    "type": "beach",
    "lat": 55.727326,
    "lon": -62.966937,
    "region": "TX"
  },
  {
    "display_name": "Steventown \u2013 Bradley Canyon \u2013 City",
    "city": "Steventown",
    "name": "Bradley Canyon",
    "type": "city",
    "lat": 45.219762,
    "lon": -139.140596,
    "region": "BC"
  },
  {
    "display_name": "New Lisa \u2013 Jill Mills \u2013 Campground",
    "city": "New Lisa",
    "name": "Jill Mills",
    "type": "campground",
    "lat": 23.055275,
    "lon": -68.45147,
    "region": "CA"
  },
  {
    "display_name": "South Alicia \u2013 Grant Meadow \u2013 Park",
    "city": "South Alicia",
    "name": "Grant Meadow",
    "type": "park",
    "lat": 23.596794,
    "lon": -74.35813,
    "region": "NC"
  },
  {
    "display_name": "Port Tara \u2013 Misty Hills \u2013 Campground",
    "city": "Port Tara",
    "name": "Misty Hills",
    "type": "campground",
    "lat": 50.973106,
    "lon": -78.066359,
    "region": "CAR"
  },
  {
    "display_name": "Johnsonmouth \u2013 Ferguson Passage \u2013 Pier",
    "city": "Johnsonmouth",
    "name": "Ferguson Passage",
    "type": "pier",
    "lat": 57.125905,
    "lon": -73.017867,
    "region": "NC"
  },
  {
    "display_name": "South Megan \u2013 Keller Pines \u2013 City",
    "city": "South Megan",
    "name": "Keller Pines",
    "type": "city",
    "lat": 52.281272,
    "lon": -136.669267,
    "region": "NC"
  },
  {
    "display_name": "Davidsonland \u2013 Chen Camp \u2013 City",
    "city": "Davidsonland",
    "name": "Chen Camp",
    "type": "city",
    "lat": 36.755609,
    "lon": -97.773713,
    "region": "TX"
  },
  {
    "display_name": "Lake Thomas \u2013 Melissa Viaduct \u2013 Park",
    "city": "Lake Thomas",
    "name": "Melissa Viaduct",
    "type": "park",
    "lat": 45.637189,
    "lon": -60.585836,
    "region": "MX"
  },
  {
    "display_name": "Washingtonchester \u2013 Rivera Wells \u2013 City",
    "city": "Washingtonchester",
    "name": "Rivera Wells",
    "type": "city",
    "lat": 53.345013,
    "lon": -121.779452,
    "region": "LA"
  },
  {
    "display_name": "Woodwardmouth \u2013 Wheeler Gardens \u2013 Inlet",
    "city": "Woodwardmouth",
    "name": "Wheeler Gardens",
    "type": "inlet",
    "lat": 56.368763,
    "lon": -72.80355,
    "region": "NY"
  },
  {
    "display_name": "South Joelview \u2013 Martinez Forks \u2013 Beach",
    "city": "South Joelview",
    "name": "Martinez Forks",
    "type": "beach",
    "lat": 43.49776,
    "lon": -78.613586,
    "region": "MX"
  },
  {
    "display_name": "Johnsonhaven \u2013 Debra Springs \u2013 Park",
    "city": "Johnsonhaven",
    "name": "Debra Springs",
    "type": "park",
    "lat": 27.892707,
    "lon": -108.998845,
    "region": "FL"
  },
  {
    "display_name": "Port Emily \u2013 Wolfe Islands \u2013 Boat Ramp",
    "city": "Port Emily",
    "name": "Wolfe Islands",
    "type": "boat_ramp",
    "lat": 25.214951,
    "lon": -109.906152,
    "region": "MX"
  },
  {
    "display_name": "Westfurt \u2013 Kathleen Groves \u2013 Park",
    "city": "Westfurt",
    "name": "Kathleen Groves",
    "type": "park",
    "lat": 51.769677,
    "lon": -129.557581,
    "region": "BC"
  },
  {
    "display_name": "New Marcusmouth \u2013 Williams Fort \u2013 City",
    "city": "New Marcusmouth",
    "name": "Williams Fort",
    "type": "city",
    "lat": 52.53948,
    "lon": -132.968125,
    "region": "CAR"
  },
  {
    "display_name": "Alishaburgh \u2013 Morrison Islands \u2013 Pier",
    "city": "Alishaburgh",
    "name": "Morrison Islands",
    "type": "pier",
    "lat": 32.118048,
    "lon": -60.554198,
    "region": "BC"
  },
  {
    "display_name": "Brandichester \u2013 Bradley Fort \u2013 City",
    "city": "Brandichester",
    "name": "Bradley Fort",
    "type": "city",
    "lat": 18.252578,
    "lon": -138.227679,
    "region": "NY"
  },
  {
    "display_name": "Lake David \u2013 Williams Glen \u2013 Beach",
    "city": "Lake David",
    "name": "Williams Glen",
    "type": "beach",
    "lat": 27.797932,
    "lon": -82.804013,
    "region": "BC"
  },
  {
    "display_name": "North William \u2013 Frances Ranch \u2013 Campground",
    "city": "North William",
    "name": "Frances Ranch",
    "type": "campground",
    "lat": 34.09507,
    "lon": -148.982965,
    "region": "CAR"
  },
  {
    "display_name": "East Brittany \u2013 Park Grove \u2013 Beach",
    "city": "East Brittany",
    "name": "Park Grove",
    "type": "beach",
    "lat": 42.74982,
    "lon": -127.104419,
    "region": "CAR"
  },
  {
    "display_name": "Pamelaborough \u2013 Elizabeth Bridge \u2013 Beach",
    "city": "Pamelaborough",
    "name": "Elizabeth Bridge",
    "type": "beach",
    "lat": 31.359704,
    "lon": -135.662723,
    "region": "NY"
  },
  {
    "display_name": "Gregorybury \u2013 Anthony Course \u2013 Pier",
    "city": "Gregorybury",
    "name": "Anthony Course",
    "type": "pier",
    "lat": 30.193196,
    "lon": -81.673991,
    "region": "FL"
  },
  {
    "display_name": "Rossland \u2013 Smith Tunnel \u2013 Pier",
    "city": "Rossland",
    "name": "Smith Tunnel",
    "type": "pier",
    "lat": 55.120192,
    "lon": -136.369873,
    "region": "BC"
  },
  {
    "display_name": "Nelsonview \u2013 Sarah Route \u2013 Beach",
    "city": "Nelsonview",
    "name": "Sarah Route",
    "type": "beach",
    "lat": 28.445371,
    "lon": -136.030853,
    "region": "NY"
  },
  {
    "display_name": "Chandlerbury \u2013 Thomas Lane \u2013 Campground",
    "city": "Chandlerbury",
    "name": "Thomas Lane",
    "type": "campground",
    "lat": 12.768214,
    "lon": -89.944295,
    "region": "CA"
  },
  {
    "display_name": "Houstonstad \u2013 Malone Gardens \u2013 Campground",
    "city": "Houstonstad",
    "name": "Malone Gardens",
    "type": "campground",
    "lat": 40.173717,
    "lon": -94.064902,
    "region": "CA"
  },
  {
    "display_name": "New Tinaport \u2013 Ward Drive \u2013 Pier",
    "city": "New Tinaport",
    "name": "Ward Drive",
    "type": "pier",
    "lat": 58.738374,
    "lon": -76.205522,
    "region": "LA"
  },
  {
    "display_name": "Martinezfurt \u2013 Alvarez Point \u2013 Boat Ramp",
    "city": "Martinezfurt",
    "name": "Alvarez Point",
    "type": "boat_ramp",
    "lat": 13.951423,
    "lon": -82.11843,
    "region": "NY"
  },
  {
    "display_name": "East Ricardo \u2013 Daniel Neck \u2013 Pier",
    "city": "East Ricardo",
    "name": "Daniel Neck",
    "type": "pier",
    "lat": 36.826555,
    "lon": -89.764512,
    "region": "LA"
  },
  {
    "display_name": "Floresborough \u2013 Carter Junction \u2013 City",
    "city": "Floresborough",
    "name": "Carter Junction",
    "type": "city",
    "lat": 26.113227,
    "lon": -131.733034,
    "region": "NC"
  },
  {
    "display_name": "East Michael \u2013 Herman Isle \u2013 Pier",
    "city": "East Michael",
    "name": "Herman Isle",
    "type": "pier",
    "lat": 12.817025,
    "lon": -142.414999,
    "region": "FL"
  },
  {
    "display_name": "Haydenborough \u2013 Jasmine Center \u2013 Inlet",
    "city": "Haydenborough",
    "name": "Jasmine Center",
    "type": "inlet",
    "lat": 44.483473,
    "lon": -120.880511,
    "region": "MX"
  },
  {
    "display_name": "Port Amberfurt \u2013 Aaron Alley \u2013 Boat Ramp",
    "city": "Port Amberfurt",
    "name": "Aaron Alley",
    "type": "boat_ramp",
    "lat": 11.644925,
    "lon": -124.274889,
    "region": "LA"
  },
  {
    "display_name": "Andrewport \u2013 Kyle Drives \u2013 Park",
    "city": "Andrewport",
    "name": "Kyle Drives",
    "type": "park",
    "lat": 35.940898,
    "lon": -122.650586,
    "region": "LA"
  },
  {
    "display_name": "Jeffhaven \u2013 Spence Harbor \u2013 City",
    "city": "Jeffhaven",
    "name": "Spence Harbor",
    "type": "city",
    "lat": 34.879968,
    "lon": -114.898271,
    "region": "NY"
  },
  {
    "display_name": "Jillianmouth \u2013 Shawn Village \u2013 Park",
    "city": "Jillianmouth",
    "name": "Shawn Village",
    "type": "park",
    "lat": 24.228299,
    "lon": -117.510691,
    "region": "ON"
  },
  {
    "display_name": "Kellyfurt \u2013 Wu Port \u2013 Beach",
    "city": "Kellyfurt",
    "name": "Wu Port",
    "type": "beach",
    "lat": 27.536247,
    "lon": -138.478577,
    "region": "CAR"
  },
  {
    "display_name": "Lake Rachel \u2013 Thomas Inlet \u2013 Inlet",
    "city": "Lake Rachel",
    "name": "Thomas Inlet",
    "type": "inlet",
    "lat": 13.347542,
    "lon": -87.787605,
    "region": "FL"
  },
  {
    "display_name": "South Nicholasview \u2013 Karen Drive \u2013 Beach",
    "city": "South Nicholasview",
    "name": "Karen Drive",
    "type": "beach",
    "lat": 38.352961,
    "lon": -97.491931,
    "region": "TX"
  },
  {
    "display_name": "Alexaport \u2013 James Vista \u2013 Park",
    "city": "Alexaport",
    "name": "James Vista",
    "type": "park",
    "lat": 19.633008,
    "lon": -113.602597,
    "region": "NC"
  },
  {
    "display_name": "West George \u2013 Sara Spur \u2013 Boat Ramp",
    "city": "West George",
    "name": "Sara Spur",
    "type": "boat_ramp",
    "lat": 56.622543,
    "lon": -80.445042,
    "region": "CA"
  },
  {
    "display_name": "New Cindystad \u2013 Kimberly Trail \u2013 Beach",
    "city": "New Cindystad",
    "name": "Kimberly Trail",
    "type": "beach",
    "lat": 35.609386,
    "lon": -106.308676,
    "region": "CA"
  },
  {
    "display_name": "East Tammy \u2013 Price Creek \u2013 Boat Ramp",
    "city": "East Tammy",
    "name": "Price Creek",
    "type": "boat_ramp",
    "lat": 33.625259,
    "lon": -114.297958,
    "region": "TX"
  },
  {
    "display_name": "Leroymouth \u2013 Brown Vista \u2013 Boat Ramp",
    "city": "Leroymouth",
    "name": "Brown Vista",
    "type": "boat_ramp",
    "lat": 59.201632,
    "lon": -93.669816,
    "region": "CAR"
  },
  {
    "display_name": "Haroldburgh \u2013 Castillo Loaf \u2013 Inlet",
    "city": "Haroldburgh",
    "name": "Castillo Loaf",
    "type": "inlet",
    "lat": 26.404852,
    "lon": -133.422133,
    "region": "NY"
  },
  {
    "display_name": "Tapiafurt \u2013 May Freeway \u2013 Campground",
    "city": "Tapiafurt",
    "name": "May Freeway",
    "type": "campground",
    "lat": 30.956122,
    "lon": -86.905906,
    "region": "BC"
  },
  {
    "display_name": "Rachelville \u2013 Angela Drives \u2013 City",
    "city": "Rachelville",
    "name": "Angela Drives",
    "type": "city",
    "lat": 10.241865,
    "lon": -88.713316,
    "region": "NY"
  },
  {
    "display_name": "Josephshire \u2013 White Causeway \u2013 Park",
    "city": "Josephshire",
    "name": "White Causeway",
    "type": "park",
    "lat": 41.279663,
    "lon": -114.424755,
    "region": "MX"
  },
  {
    "display_name": "Michaelbury \u2013 Gonzalez Crossing \u2013 Park",
    "city": "Michaelbury",
    "name": "Gonzalez Crossing",
    "type": "park",
    "lat": 39.681908,
    "lon": -133.906298,
    "region": "CAR"
  },
  {
    "display_name": "Taylorland \u2013 Williams Inlet \u2013 Campground",
    "city": "Taylorland",
    "name": "Williams Inlet",
    "type": "campground",
    "lat": 45.699788,
    "lon": -64.831778,
    "region": "LA"
  },
  {
    "display_name": "New Cheryl \u2013 Davis Orchard \u2013 Boat Ramp",
    "city": "New Cheryl",
    "name": "Davis Orchard",
    "type": "boat_ramp",
    "lat": 57.95004,
    "lon": -112.357468,
    "region": "BC"
  },
  {
    "display_name": "Colliermouth \u2013 Osborne Roads \u2013 Park",
    "city": "Colliermouth",
    "name": "Osborne Roads",
    "type": "park",
    "lat": 10.12034,
    "lon": -138.986549,
    "region": "ON"
  },
  {
    "display_name": "Joelmouth \u2013 Patel Trafficway \u2013 Pier",
    "city": "Joelmouth",
    "name": "Patel Trafficway",
    "type": "pier",
    "lat": 13.560392,
    "lon": -137.320146,
    "region": "CAR"
  },
  {
    "display_name": "Jamesburgh \u2013 Patricia Union \u2013 City",
    "city": "Jamesburgh",
    "name": "Patricia Union",
    "type": "city",
    "lat": 10.559919,
    "lon": -129.445378,
    "region": "CAR"
  },
  {
    "display_name": "West Tammy \u2013 Stacey Club \u2013 Beach",
    "city": "West Tammy",
    "name": "Stacey Club",
    "type": "beach",
    "lat": 31.778632,
    "lon": -101.095666,
    "region": "TX"
  },
  {
    "display_name": "Grantport \u2013 Brock Forges \u2013 Boat Ramp",
    "city": "Grantport",
    "name": "Brock Forges",
    "type": "boat_ramp",
    "lat": 15.613614,
    "lon": -133.76594,
    "region": "CAR"
  },
  {
    "display_name": "Gonzalesberg \u2013 Baker Square \u2013 City",
    "city": "Gonzalesberg",
    "name": "Baker Square",
    "type": "city",
    "lat": 18.977683,
    "lon": -66.820284,
    "region": "LA"
  },
  {
    "display_name": "Williammouth \u2013 Hanson Islands \u2013 Pier",
    "city": "Williammouth",
    "name": "Hanson Islands",
    "type": "pier",
    "lat": 17.742417,
    "lon": -74.673799,
    "region": "NY"
  },
  {
    "display_name": "Tammiemouth \u2013 Jessica \u2013 Boat Ramp",
    "city": "Tammiemouth",
    "name": "Jessica",
    "type": "boat_ramp",
    "lat": 39.345589,
    "lon": -117.323983,
    "region": "BC"
  },
  {
    "display_name": "Toddview \u2013 Murphy Viaduct \u2013 Boat Ramp",
    "city": "Toddview",
    "name": "Murphy Viaduct",
    "type": "boat_ramp",
    "lat": 17.417667,
    "lon": -104.42627,
    "region": "TX"
  },
  {
    "display_name": "East Joseside \u2013 Holloway Island \u2013 Park",
    "city": "East Joseside",
    "name": "Holloway Island",
    "type": "park",
    "lat": 52.711871,
    "lon": -91.470347,
    "region": "ON"
  },
  {
    "display_name": "North Suzannemouth \u2013 Anna Springs \u2013 Campground",
    "city": "North Suzannemouth",
    "name": "Anna Springs",
    "type": "campground",
    "lat": 49.271035,
    "lon": -138.012207,
    "region": "TX"
  },
  {
    "display_name": "Christopherfurt \u2013 Melendez Islands \u2013 Inlet",
    "city": "Christopherfurt",
    "name": "Melendez Islands",
    "type": "inlet",
    "lat": 55.978723,
    "lon": -144.818818,
    "region": "MX"
  },
  {
    "display_name": "West Roberthaven \u2013 Young Turnpike \u2013 Pier",
    "city": "West Roberthaven",
    "name": "Young Turnpike",
    "type": "pier",
    "lat": 17.117965,
    "lon": -70.622635,
    "region": "CAR"
  },
  {
    "display_name": "New Stephanieberg \u2013 Nelson Radial \u2013 Boat Ramp",
    "city": "New Stephanieberg",
    "name": "Nelson Radial",
    "type": "boat_ramp",
    "lat": 34.051003,
    "lon": -132.452039,
    "region": "FL"
  },
  {
    "display_name": "Kristinashire \u2013 Betty Pine \u2013 Pier",
    "city": "Kristinashire",
    "name": "Betty Pine",
    "type": "pier",
    "lat": 19.868768,
    "lon": -72.120025,
    "region": "NY"
  },
  {
    "display_name": "Jeffreyshire \u2013 Jon Causeway \u2013 Park",
    "city": "Jeffreyshire",
    "name": "Jon Causeway",
    "type": "park",
    "lat": 49.676031,
    "lon": -103.405321,
    "region": "NY"
  },
  {
    "display_name": "Monicabury \u2013 Allen Ports \u2013 City",
    "city": "Monicabury",
    "name": "Allen Ports",
    "type": "city",
    "lat": 43.558109,
    "lon": -114.300765,
    "region": "LA"
  },
  {
    "display_name": "Deborahfort \u2013 James Bypass \u2013 Park",
    "city": "Deborahfort",
    "name": "James Bypass",
    "type": "park",
    "lat": 42.1539,
    "lon": -145.5721,
    "region": "NC"
  },
  {
    "display_name": "Singhstad \u2013 Lewis Unions \u2013 Beach",
    "city": "Singhstad",
    "name": "Lewis Unions",
    "type": "beach",
    "lat": 31.520139,
    "lon": -69.637457,
    "region": "FL"
  },
  {
    "display_name": "West Robin \u2013 Michael Springs \u2013 Beach",
    "city": "West Robin",
    "name": "Michael Springs",
    "type": "beach",
    "lat": 11.349628,
    "lon": -120.296599,
    "region": "LA"
  },
  {
    "display_name": "Fernandoberg \u2013 Jones Roads \u2013 Boat Ramp",
    "city": "Fernandoberg",
    "name": "Jones Roads",
    "type": "boat_ramp",
    "lat": 41.973577,
    "lon": -60.665892,
    "region": "MX"
  },
  {
    "display_name": "Hayneschester \u2013 Palmer Bypass \u2013 Boat Ramp",
    "city": "Hayneschester",
    "name": "Palmer Bypass",
    "type": "boat_ramp",
    "lat": 18.543732,
    "lon": -67.665418,
    "region": "MX"
  },
  {
    "display_name": "New Larryburgh \u2013 Richard Greens \u2013 Campground",
    "city": "New Larryburgh",
    "name": "Richard Greens",
    "type": "campground",
    "lat": 51.712191,
    "lon": -134.351683,
    "region": "TX"
  },
  {
    "display_name": "East Brittany \u2013 Pearson Vista \u2013 Inlet",
    "city": "East Brittany",
    "name": "Pearson Vista",
    "type": "inlet",
    "lat": 19.171178,
    "lon": -67.050304,
    "region": "TX"
  },
  {
    "display_name": "Lake Brenda \u2013 Jennifer Park \u2013 Boat Ramp",
    "city": "Lake Brenda",
    "name": "Jennifer Park",
    "type": "boat_ramp",
    "lat": 22.561199,
    "lon": -108.981471,
    "region": "NC"
  },
  {
    "display_name": "Randychester \u2013 Megan Squares \u2013 Inlet",
    "city": "Randychester",
    "name": "Megan Squares",
    "type": "inlet",
    "lat": 11.826302,
    "lon": -130.659212,
    "region": "CAR"
  },
  {
    "display_name": "East Susanhaven \u2013 Henry Lock \u2013 Boat Ramp",
    "city": "East Susanhaven",
    "name": "Henry Lock",
    "type": "boat_ramp",
    "lat": 52.811096,
    "lon": -126.379187,
    "region": "NY"
  },
  {
    "display_name": "West Shannonburgh \u2013 Robertson Prairie \u2013 Inlet",
    "city": "West Shannonburgh",
    "name": "Robertson Prairie",
    "type": "inlet",
    "lat": 17.328784,
    "lon": -86.974153,
    "region": "FL"
  },
  {
    "display_name": "Lorishire \u2013 Laura Mission \u2013 City",
    "city": "Lorishire",
    "name": "Laura Mission",
    "type": "city",
    "lat": 21.790212,
    "lon": -70.991316,
    "region": "CAR"
  },
  {
    "display_name": "Robinsonton \u2013 Regina Wall \u2013 Pier",
    "city": "Robinsonton",
    "name": "Regina Wall",
    "type": "pier",
    "lat": 16.275608,
    "lon": -69.644256,
    "region": "TX"
  },
  {
    "display_name": "Michaelview \u2013 Mark Mountain \u2013 Inlet",
    "city": "Michaelview",
    "name": "Mark Mountain",
    "type": "inlet",
    "lat": 12.144735,
    "lon": -128.096967,
    "region": "FL"
  },
  {
    "display_name": "Andrewville \u2013 Chelsea Course \u2013 City",
    "city": "Andrewville",
    "name": "Chelsea Course",
    "type": "city",
    "lat": 49.068905,
    "lon": -113.059325,
    "region": "NY"
  },
  {
    "display_name": "Garciamouth \u2013 Bush Ports \u2013 Inlet",
    "city": "Garciamouth",
    "name": "Bush Ports",
    "type": "inlet",
    "lat": 55.115739,
    "lon": -69.159533,
    "region": "CAR"
  },
  {
    "display_name": "Virginiafurt \u2013 Barnes Pass \u2013 Boat Ramp",
    "city": "Virginiafurt",
    "name": "Barnes Pass",
    "type": "boat_ramp",
    "lat": 31.018614,
    "lon": -106.203772,
    "region": "NC"
  },
  {
    "display_name": "Huynhfort \u2013 Morris Passage \u2013 City",
    "city": "Huynhfort",
    "name": "Morris Passage",
    "type": "city",
    "lat": 29.538668,
    "lon": -82.480924,
    "region": "FL"
  },
  {
    "display_name": "Maryhaven \u2013 Silva Fall \u2013 City",
    "city": "Maryhaven",
    "name": "Silva Fall",
    "type": "city",
    "lat": 27.84627,
    "lon": -117.16197,
    "region": "NC"
  },
  {
    "display_name": "Patriciaburgh \u2013 Williams Lodge \u2013 Pier",
    "city": "Patriciaburgh",
    "name": "Williams Lodge",
    "type": "pier",
    "lat": 11.853911,
    "lon": -100.185757,
    "region": "NY"
  },
  {
    "display_name": "Lake Travismouth \u2013 Martin Lodge \u2013 Boat Ramp",
    "city": "Lake Travismouth",
    "name": "Martin Lodge",
    "type": "boat_ramp",
    "lat": 52.828359,
    "lon": -78.424587,
    "region": "CA"
  },
  {
    "display_name": "Dianeview \u2013 Harris Causeway \u2013 Inlet",
    "city": "Dianeview",
    "name": "Harris Causeway",
    "type": "inlet",
    "lat": 21.911868,
    "lon": -102.637889,
    "region": "FL"
  },
  {
    "display_name": "Maryville \u2013 Nelson Falls \u2013 Campground",
    "city": "Maryville",
    "name": "Nelson Falls",
    "type": "campground",
    "lat": 15.009795,
    "lon": -67.180036,
    "region": "NC"
  },
  {
    "display_name": "South James \u2013 Tom Spurs \u2013 City",
    "city": "South James",
    "name": "Tom Spurs",
    "type": "city",
    "lat": 29.40336,
    "lon": -102.706761,
    "region": "FL"
  },
  {
    "display_name": "North Josephtown \u2013 Cody Track \u2013 Inlet",
    "city": "North Josephtown",
    "name": "Cody Track",
    "type": "inlet",
    "lat": 58.196041,
    "lon": -133.820529,
    "region": "TX"
  },
  {
    "display_name": "Gilbertberg \u2013 Callahan Camp \u2013 Boat Ramp",
    "city": "Gilbertberg",
    "name": "Callahan Camp",
    "type": "boat_ramp",
    "lat": 24.035117,
    "lon": -111.348569,
    "region": "ON"
  },
  {
    "display_name": "Diazville \u2013 James Neck \u2013 City",
    "city": "Diazville",
    "name": "James Neck",
    "type": "city",
    "lat": 54.39749,
    "lon": -116.310041,
    "region": "CAR"
  },
  {
    "display_name": "North Jonathanborough \u2013 Spears Burgs \u2013 Inlet",
    "city": "North Jonathanborough",
    "name": "Spears Burgs",
    "type": "inlet",
    "lat": 42.518295,
    "lon": -75.894172,
    "region": "ON"
  },
  {
    "display_name": "Port Danaton \u2013 Peter River \u2013 City",
    "city": "Port Danaton",
    "name": "Peter River",
    "type": "city",
    "lat": 56.203053,
    "lon": -101.709202,
    "region": "LA"
  },
  {
    "display_name": "Lake Brandontown \u2013 Campos Lock \u2013 Boat Ramp",
    "city": "Lake Brandontown",
    "name": "Campos Lock",
    "type": "boat_ramp",
    "lat": 50.495274,
    "lon": -130.780849,
    "region": "TX"
  },
  {
    "display_name": "Lewisville \u2013 Christopher Road \u2013 Boat Ramp",
    "city": "Lewisville",
    "name": "Christopher Road",
    "type": "boat_ramp",
    "lat": 13.882286,
    "lon": -142.638151,
    "region": "BC"
  },
  {
    "display_name": "Lewischester \u2013 Butler Park \u2013 Boat Ramp",
    "city": "Lewischester",
    "name": "Butler Park",
    "type": "boat_ramp",
    "lat": 16.848073,
    "lon": -127.77872,
    "region": "NY"
  },
  {
    "display_name": "New Amanda \u2013 Joshua Pines \u2013 Park",
    "city": "New Amanda",
    "name": "Joshua Pines",
    "type": "park",
    "lat": 31.096163,
    "lon": -134.750303,
    "region": "ON"
  },
  {
    "display_name": "Port Natashachester \u2013 Patrick Throughway \u2013 Boat Ramp",
    "city": "Port Natashachester",
    "name": "Patrick Throughway",
    "type": "boat_ramp",
    "lat": 41.824171,
    "lon": -102.268378,
    "region": "NC"
  },
  {
    "display_name": "Lake Danielle \u2013 Jeffrey Pines \u2013 City",
    "city": "Lake Danielle",
    "name": "Jeffrey Pines",
    "type": "city",
    "lat": 21.348224,
    "lon": -73.321527,
    "region": "CA"
  },
  {
    "display_name": "Carrieville \u2013 Parker Court \u2013 Park",
    "city": "Carrieville",
    "name": "Parker Court",
    "type": "park",
    "lat": 10.352141,
    "lon": -119.834047,
    "region": "ON"
  },
  {
    "display_name": "Lake Barbaraland \u2013 Michelle Brooks \u2013 Beach",
    "city": "Lake Barbaraland",
    "name": "Michelle Brooks",
    "type": "beach",
    "lat": 27.934652,
    "lon": -112.894379,
    "region": "MX"
  },
  {
    "display_name": "Christopherland \u2013 Susan Garden \u2013 City",
    "city": "Christopherland",
    "name": "Susan Garden",
    "type": "city",
    "lat": 44.986857,
    "lon": -116.112446,
    "region": "LA"
  },
  {
    "display_name": "Hollyshire \u2013 Jordan Mill \u2013 Inlet",
    "city": "Hollyshire",
    "name": "Jordan Mill",
    "type": "inlet",
    "lat": 26.201929,
    "lon": -123.805288,
    "region": "CAR"
  },
  {
    "display_name": "South James \u2013 John Port \u2013 Boat Ramp",
    "city": "South James",
    "name": "John Port",
    "type": "boat_ramp",
    "lat": 18.8132,
    "lon": -111.463783,
    "region": "CA"
  },
  {
    "display_name": "Lake Brandonmouth \u2013 Blevins Ridges \u2013 Park",
    "city": "Lake Brandonmouth",
    "name": "Blevins Ridges",
    "type": "park",
    "lat": 46.96174,
    "lon": -93.188357,
    "region": "NC"
  },
  {
    "display_name": "Donnaton \u2013 Dustin Fork \u2013 Inlet",
    "city": "Donnaton",
    "name": "Dustin Fork",
    "type": "inlet",
    "lat": 55.178914,
    "lon": -138.087141,
    "region": "ON"
  },
  {
    "display_name": "Carlachester \u2013 Hughes Circles \u2013 Campground",
    "city": "Carlachester",
    "name": "Hughes Circles",
    "type": "campground",
    "lat": 38.569033,
    "lon": -141.533513,
    "region": "NY"
  },
  {
    "display_name": "New Jacobton \u2013 Heather Road \u2013 Campground",
    "city": "New Jacobton",
    "name": "Heather Road",
    "type": "campground",
    "lat": 25.060014,
    "lon": -108.087038,
    "region": "NY"
  },
  {
    "display_name": "South Cindy \u2013 Julia Branch \u2013 Campground",
    "city": "South Cindy",
    "name": "Julia Branch",
    "type": "campground",
    "lat": 37.03235,
    "lon": -68.360047,
    "region": "FL"
  },
  {
    "display_name": "West Emilyfort \u2013 Janet Lane \u2013 Beach",
    "city": "West Emilyfort",
    "name": "Janet Lane",
    "type": "beach",
    "lat": 35.402752,
    "lon": -85.231346,
    "region": "MX"
  },
  {
    "display_name": "North Anneport \u2013 Gilbert Station \u2013 Pier",
    "city": "North Anneport",
    "name": "Gilbert Station",
    "type": "pier",
    "lat": 52.303397,
    "lon": -75.06077,
    "region": "CA"
  },
  {
    "display_name": "New Ryan \u2013 Rowe Causeway \u2013 Campground",
    "city": "New Ryan",
    "name": "Rowe Causeway",
    "type": "campground",
    "lat": 22.875699,
    "lon": -60.136958,
    "region": "TX"
  },
  {
    "display_name": "West Kelliemouth \u2013 Michele Walk \u2013 Park",
    "city": "West Kelliemouth",
    "name": "Michele Walk",
    "type": "park",
    "lat": 34.699436,
    "lon": -112.094671,
    "region": "FL"
  },
  {
    "display_name": "Reyesborough \u2013 Kenneth Mountain \u2013 Inlet",
    "city": "Reyesborough",
    "name": "Kenneth Mountain",
    "type": "inlet",
    "lat": 37.508006,
    "lon": -107.079737,
    "region": "CA"
  },
  {
    "display_name": "West Alexis \u2013 Megan Brook \u2013 Inlet",
    "city": "West Alexis",
    "name": "Megan Brook",
    "type": "inlet",
    "lat": 42.534279,
    "lon": -140.757037,
    "region": "LA"
  },
  {
    "display_name": "West Dylan \u2013 Walter Islands \u2013 City",
    "city": "West Dylan",
    "name": "Walter Islands",
    "type": "city",
    "lat": 25.109709,
    "lon": -65.646358,
    "region": "BC"
  },
  {
    "display_name": "Sharonchester \u2013 Thomas Unions \u2013 City",
    "city": "Sharonchester",
    "name": "Thomas Unions",
    "type": "city",
    "lat": 49.105555,
    "lon": -68.43617,
    "region": "TX"
  },
  {
    "display_name": "New Amanda \u2013 Jones Divide \u2013 City",
    "city": "New Amanda",
    "name": "Jones Divide",
    "type": "city",
    "lat": 27.255121,
    "lon": -89.675113,
    "region": "FL"
  },
  {
    "display_name": "Mcdanielberg \u2013 Christine Park \u2013 Inlet",
    "city": "Mcdanielberg",
    "name": "Christine Park",
    "type": "inlet",
    "lat": 18.378675,
    "lon": -79.855822,
    "region": "NC"
  },
  {
    "display_name": "Port Cynthiaview \u2013 Roy Ranch \u2013 Park",
    "city": "Port Cynthiaview",
    "name": "Roy Ranch",
    "type": "park",
    "lat": 54.795485,
    "lon": -120.336768,
    "region": "NC"
  },
  {
    "display_name": "East Sarah \u2013 Holloway Garden \u2013 Pier",
    "city": "East Sarah",
    "name": "Holloway Garden",
    "type": "pier",
    "lat": 54.324185,
    "lon": -148.433345,
    "region": "TX"
  },
  {
    "display_name": "Brendanbury \u2013 Ramos Vista \u2013 Beach",
    "city": "Brendanbury",
    "name": "Ramos Vista",
    "type": "beach",
    "lat": 22.26499,
    "lon": -104.805256,
    "region": "MX"
  },
  {
    "display_name": "Michaelborough \u2013 Wilson Track \u2013 Boat Ramp",
    "city": "Michaelborough",
    "name": "Wilson Track",
    "type": "boat_ramp",
    "lat": 44.414562,
    "lon": -115.773972,
    "region": "NY"
  },
  {
    "display_name": "New Stevenhaven \u2013 Amy Roads \u2013 Campground",
    "city": "New Stevenhaven",
    "name": "Amy Roads",
    "type": "campground",
    "lat": 39.900941,
    "lon": -60.163171,
    "region": "TX"
  },
  {
    "display_name": "East Erin \u2013 Teresa Plains \u2013 Boat Ramp",
    "city": "East Erin",
    "name": "Teresa Plains",
    "type": "boat_ramp",
    "lat": 23.534206,
    "lon": -131.541279,
    "region": "CAR"
  },
  {
    "display_name": "Johnbury \u2013 Paul Island \u2013 Campground",
    "city": "Johnbury",
    "name": "Paul Island",
    "type": "campground",
    "lat": 48.791482,
    "lon": -104.409479,
    "region": "BC"
  },
  {
    "display_name": "Shawnmouth \u2013 Jessica Prairie \u2013 Pier",
    "city": "Shawnmouth",
    "name": "Jessica Prairie",
    "type": "pier",
    "lat": 28.692412,
    "lon": -131.971174,
    "region": "CA"
  },
  {
    "display_name": "Wongland \u2013 Dominguez Plains \u2013 City",
    "city": "Wongland",
    "name": "Dominguez Plains",
    "type": "city",
    "lat": 54.226872,
    "lon": -72.210794,
    "region": "NY"
  },
  {
    "display_name": "West Jefffort \u2013 Ramos Plain \u2013 Campground",
    "city": "West Jefffort",
    "name": "Ramos Plain",
    "type": "campground",
    "lat": 51.794887,
    "lon": -73.795075,
    "region": "NC"
  },
  {
    "display_name": "Port Natalieberg \u2013 Jessica Gardens \u2013 Pier",
    "city": "Port Natalieberg",
    "name": "Jessica Gardens",
    "type": "pier",
    "lat": 34.02117,
    "lon": -89.446928,
    "region": "FL"
  },
  {
    "display_name": "Millerberg \u2013 Sean Neck \u2013 Inlet",
    "city": "Millerberg",
    "name": "Sean Neck",
    "type": "inlet",
    "lat": 55.642825,
    "lon": -139.174245,
    "region": "CAR"
  },
  {
    "display_name": "Samuelside \u2013 Torres Divide \u2013 Beach",
    "city": "Samuelside",
    "name": "Torres Divide",
    "type": "beach",
    "lat": 49.078279,
    "lon": -131.637087,
    "region": "NY"
  },
  {
    "display_name": "Rhondafurt \u2013 Cherry Court \u2013 Beach",
    "city": "Rhondafurt",
    "name": "Cherry Court",
    "type": "beach",
    "lat": 35.092754,
    "lon": -107.542059,
    "region": "MX"
  },
  {
    "display_name": "Rebeccatown \u2013 Keith Crossing \u2013 Beach",
    "city": "Rebeccatown",
    "name": "Keith Crossing",
    "type": "beach",
    "lat": 33.364203,
    "lon": -116.646806,
    "region": "TX"
  },
  {
    "display_name": "East Tyronemouth \u2013 Christine Groves \u2013 Beach",
    "city": "East Tyronemouth",
    "name": "Christine Groves",
    "type": "beach",
    "lat": 50.447998,
    "lon": -106.480821,
    "region": "TX"
  },
  {
    "display_name": "East Gregory \u2013 George Square \u2013 Pier",
    "city": "East Gregory",
    "name": "George Square",
    "type": "pier",
    "lat": 13.871197,
    "lon": -121.602662,
    "region": "LA"
  },
  {
    "display_name": "Thomasshire \u2013 Hines Avenue \u2013 Beach",
    "city": "Thomasshire",
    "name": "Hines Avenue",
    "type": "beach",
    "lat": 54.458121,
    "lon": -62.509696,
    "region": "CAR"
  },
  {
    "display_name": "Sandersport \u2013 Kelley Highway \u2013 Inlet",
    "city": "Sandersport",
    "name": "Kelley Highway",
    "type": "inlet",
    "lat": 10.86919,
    "lon": -144.759227,
    "region": "TX"
  },
  {
    "display_name": "Angelachester \u2013 Kimberly Well \u2013 Campground",
    "city": "Angelachester",
    "name": "Kimberly Well",
    "type": "campground",
    "lat": 10.379098,
    "lon": -62.300633,
    "region": "TX"
  },
  {
    "display_name": "South Danielfort \u2013 Murphy Well \u2013 Campground",
    "city": "South Danielfort",
    "name": "Murphy Well",
    "type": "campground",
    "lat": 55.861381,
    "lon": -131.973913,
    "region": "CA"
  },
  {
    "display_name": "Colemanberg \u2013 Russell Mill \u2013 City",
    "city": "Colemanberg",
    "name": "Russell Mill",
    "type": "city",
    "lat": 38.275857,
    "lon": -104.921134,
    "region": "BC"
  },
  {
    "display_name": "West Ashley \u2013 Judy Mill \u2013 Boat Ramp",
    "city": "West Ashley",
    "name": "Judy Mill",
    "type": "boat_ramp",
    "lat": 13.258852,
    "lon": -122.612362,
    "region": "LA"
  },
  {
    "display_name": "Brianland \u2013 Mckee Point \u2013 City",
    "city": "Brianland",
    "name": "Mckee Point",
    "type": "city",
    "lat": 13.33115,
    "lon": -76.774674,
    "region": "LA"
  },
  {
    "display_name": "Davisville \u2013 Joshua Branch \u2013 Boat Ramp",
    "city": "Davisville",
    "name": "Joshua Branch",
    "type": "boat_ramp",
    "lat": 42.212493,
    "lon": -90.988926,
    "region": "TX"
  },
  {
    "display_name": "New Elizabeth \u2013 Vance Plain \u2013 Beach",
    "city": "New Elizabeth",
    "name": "Vance Plain",
    "type": "beach",
    "lat": 43.767527,
    "lon": -68.733422,
    "region": "NY"
  },
  {
    "display_name": "New Jamesmouth \u2013 Ellis Way \u2013 Inlet",
    "city": "New Jamesmouth",
    "name": "Ellis Way",
    "type": "inlet",
    "lat": 49.539517,
    "lon": -108.376007,
    "region": "FL"
  },
  {
    "display_name": "South Tonyamouth \u2013 Donald Squares \u2013 Pier",
    "city": "South Tonyamouth",
    "name": "Donald Squares",
    "type": "pier",
    "lat": 43.024817,
    "lon": -114.717436,
    "region": "TX"
  },
  {
    "display_name": "Lindseyport \u2013 Perry Manor \u2013 City",
    "city": "Lindseyport",
    "name": "Perry Manor",
    "type": "city",
    "lat": 46.30026,
    "lon": -129.219699,
    "region": "ON"
  },
  {
    "display_name": "Michaelbury \u2013 Scott Green \u2013 Beach",
    "city": "Michaelbury",
    "name": "Scott Green",
    "type": "beach",
    "lat": 22.352199,
    "lon": -144.063517,
    "region": "BC"
  },
  {
    "display_name": "Henrytown \u2013 Byrd Path \u2013 Boat Ramp",
    "city": "Henrytown",
    "name": "Byrd Path",
    "type": "boat_ramp",
    "lat": 13.173158,
    "lon": -139.715137,
    "region": "BC"
  },
  {
    "display_name": "Lake Charles \u2013 Wood Road \u2013 Beach",
    "city": "Lake Charles",
    "name": "Wood Road",
    "type": "beach",
    "lat": 38.037943,
    "lon": -132.789285,
    "region": "TX"
  },
  {
    "display_name": "Stephaniestad \u2013 Deborah Place \u2013 Beach",
    "city": "Stephaniestad",
    "name": "Deborah Place",
    "type": "beach",
    "lat": 20.013262,
    "lon": -112.53579,
    "region": "LA"
  },
  {
    "display_name": "Port Tyler \u2013 Gonzalez Forest \u2013 Park",
    "city": "Port Tyler",
    "name": "Gonzalez Forest",
    "type": "park",
    "lat": 18.079517,
    "lon": -63.363526,
    "region": "LA"
  },
  {
    "display_name": "Lake Annport \u2013 James Passage \u2013 Park",
    "city": "Lake Annport",
    "name": "James Passage",
    "type": "park",
    "lat": 53.099162,
    "lon": -77.206456,
    "region": "LA"
  },
  {
    "display_name": "Baileymouth \u2013 Tony Station \u2013 Beach",
    "city": "Baileymouth",
    "name": "Tony Station",
    "type": "beach",
    "lat": 29.253226,
    "lon": -133.989335,
    "region": "LA"
  },
  {
    "display_name": "Amandaburgh \u2013 Griffin Shore \u2013 City",
    "city": "Amandaburgh",
    "name": "Griffin Shore",
    "type": "city",
    "lat": 38.399697,
    "lon": -68.455387,
    "region": "BC"
  },
  {
    "display_name": "Woodfurt \u2013 Hunt Cape \u2013 Park",
    "city": "Woodfurt",
    "name": "Hunt Cape",
    "type": "park",
    "lat": 47.231176,
    "lon": -134.978248,
    "region": "BC"
  },
  {
    "display_name": "Patrickchester \u2013 Oconnell Creek \u2013 Inlet",
    "city": "Patrickchester",
    "name": "Oconnell Creek",
    "type": "inlet",
    "lat": 52.061451,
    "lon": -76.423276,
    "region": "NC"
  },
  {
    "display_name": "Ryanfurt \u2013 Matthew Pike \u2013 City",
    "city": "Ryanfurt",
    "name": "Matthew Pike",
    "type": "city",
    "lat": 17.170645,
    "lon": -72.610153,
    "region": "FL"
  },
  {
    "display_name": "East Lisachester \u2013 Heather Path \u2013 Inlet",
    "city": "East Lisachester",
    "name": "Heather Path",
    "type": "inlet",
    "lat": 10.480676,
    "lon": -130.380605,
    "region": "CA"
  },
  {
    "display_name": "West Christinahaven \u2013 Elizabeth Avenue \u2013 Campground",
    "city": "West Christinahaven",
    "name": "Elizabeth Avenue",
    "type": "campground",
    "lat": 12.965817,
    "lon": -140.229324,
    "region": "NY"
  },
  {
    "display_name": "South Jennifer \u2013 Brian Burgs \u2013 Park",
    "city": "South Jennifer",
    "name": "Brian Burgs",
    "type": "park",
    "lat": 18.153124,
    "lon": -92.975846,
    "region": "TX"
  },
  {
    "display_name": "East Margaret \u2013 Ross Overpass \u2013 Campground",
    "city": "East Margaret",
    "name": "Ross Overpass",
    "type": "campground",
    "lat": 23.364383,
    "lon": -103.658376,
    "region": "LA"
  },
  {
    "display_name": "Nancytown \u2013 Melissa Stravenue \u2013 Beach",
    "city": "Nancytown",
    "name": "Melissa Stravenue",
    "type": "beach",
    "lat": 17.915579,
    "lon": -146.895916,
    "region": "CA"
  },
  {
    "display_name": "New Andrewborough \u2013 Bethany Fields \u2013 Park",
    "city": "New Andrewborough",
    "name": "Bethany Fields",
    "type": "park",
    "lat": 21.338713,
    "lon": -142.857276,
    "region": "CAR"
  },
  {
    "display_name": "Jeannefurt \u2013 Randall Common \u2013 Inlet",
    "city": "Jeannefurt",
    "name": "Randall Common",
    "type": "inlet",
    "lat": 21.043295,
    "lon": -72.603066,
    "region": "MX"
  },
  {
    "display_name": "Lake Katelyn \u2013 Brittany Mews \u2013 Boat Ramp",
    "city": "Lake Katelyn",
    "name": "Brittany Mews",
    "type": "boat_ramp",
    "lat": 41.890651,
    "lon": -123.542967,
    "region": "CA"
  },
  {
    "display_name": "Hillburgh \u2013 Wright Highway \u2013 Beach",
    "city": "Hillburgh",
    "name": "Wright Highway",
    "type": "beach",
    "lat": 33.655208,
    "lon": -119.758353,
    "region": "NY"
  },
  {
    "display_name": "Kaufmanland \u2013 Phillips Key \u2013 Park",
    "city": "Kaufmanland",
    "name": "Phillips Key",
    "type": "park",
    "lat": 35.932145,
    "lon": -126.882392,
    "region": "NY"
  },
  {
    "display_name": "West Davidberg \u2013 Frost Ford \u2013 City",
    "city": "West Davidberg",
    "name": "Frost Ford",
    "type": "city",
    "lat": 37.63592,
    "lon": -113.405085,
    "region": "LA"
  },
  {
    "display_name": "Lawrenceburgh \u2013 Monica Knoll \u2013 Park",
    "city": "Lawrenceburgh",
    "name": "Monica Knoll",
    "type": "park",
    "lat": 16.566737,
    "lon": -124.845196,
    "region": "CAR"
  },
  {
    "display_name": "Victoriaside \u2013 Brown Mills \u2013 Beach",
    "city": "Victoriaside",
    "name": "Brown Mills",
    "type": "beach",
    "lat": 41.868514,
    "lon": -117.330418,
    "region": "MX"
  },
  {
    "display_name": "Hickston \u2013 Gregory s \u2013 Pier",
    "city": "Hickston",
    "name": "Gregory s",
    "type": "pier",
    "lat": 25.97155,
    "lon": -143.12605,
    "region": "BC"
  },
  {
    "display_name": "Phillipsmouth \u2013 Jamie Key \u2013 Park",
    "city": "Phillipsmouth",
    "name": "Jamie Key",
    "type": "park",
    "lat": 34.495308,
    "lon": -125.401738,
    "region": "BC"
  },
  {
    "display_name": "Teresahaven \u2013 Karen Union \u2013 Inlet",
    "city": "Teresahaven",
    "name": "Karen Union",
    "type": "inlet",
    "lat": 15.9077,
    "lon": -66.046607,
    "region": "CAR"
  },
  {
    "display_name": "New Matthewchester \u2013 Wilson Overpass \u2013 Park",
    "city": "New Matthewchester",
    "name": "Wilson Overpass",
    "type": "park",
    "lat": 49.426473,
    "lon": -123.153911,
    "region": "BC"
  },
  {
    "display_name": "South Thomas \u2013 Brown Spring \u2013 Boat Ramp",
    "city": "South Thomas",
    "name": "Brown Spring",
    "type": "boat_ramp",
    "lat": 39.310417,
    "lon": -100.938926,
    "region": "MX"
  },
  {
    "display_name": "Port Eric \u2013 Barry Points \u2013 Campground",
    "city": "Port Eric",
    "name": "Barry Points",
    "type": "campground",
    "lat": 57.494284,
    "lon": -85.821563,
    "region": "TX"
  },
  {
    "display_name": "Maryshire \u2013 Jeff Parkways \u2013 Inlet",
    "city": "Maryshire",
    "name": "Jeff Parkways",
    "type": "inlet",
    "lat": 57.545393,
    "lon": -122.169646,
    "region": "LA"
  },
  {
    "display_name": "Alexanderton \u2013 Smith Corner \u2013 Boat Ramp",
    "city": "Alexanderton",
    "name": "Smith Corner",
    "type": "boat_ramp",
    "lat": 51.096265,
    "lon": -90.784297,
    "region": "TX"
  },
  {
    "display_name": "North Joseph \u2013 Cline Passage \u2013 City",
    "city": "North Joseph",
    "name": "Cline Passage",
    "type": "city",
    "lat": 49.005818,
    "lon": -119.346642,
    "region": "FL"
  },
  {
    "display_name": "Elizabethtown \u2013 Brooks Drives \u2013 Campground",
    "city": "Elizabethtown",
    "name": "Brooks Drives",
    "type": "campground",
    "lat": 37.456643,
    "lon": -144.252552,
    "region": "TX"
  },
  {
    "display_name": "East Meganfurt \u2013 Wilson Junctions \u2013 Campground",
    "city": "East Meganfurt",
    "name": "Wilson Junctions",
    "type": "campground",
    "lat": 59.627111,
    "lon": -84.789281,
    "region": "NY"
  },
  {
    "display_name": "Yorkfort \u2013 Martin Parkways \u2013 Pier",
    "city": "Yorkfort",
    "name": "Martin Parkways",
    "type": "pier",
    "lat": 29.039365,
    "lon": -110.65381,
    "region": "FL"
  },
  {
    "display_name": "Fuentesberg \u2013 Moody Summit \u2013 Boat Ramp",
    "city": "Fuentesberg",
    "name": "Moody Summit",
    "type": "boat_ramp",
    "lat": 19.82807,
    "lon": -97.431937,
    "region": "MX"
  },
  {
    "display_name": "South Melissa \u2013 Anthony Shoal \u2013 City",
    "city": "South Melissa",
    "name": "Anthony Shoal",
    "type": "city",
    "lat": 38.852174,
    "lon": -94.50175,
    "region": "BC"
  },
  {
    "display_name": "South Morganborough \u2013 Lauren Mountains \u2013 Pier",
    "city": "South Morganborough",
    "name": "Lauren Mountains",
    "type": "pier",
    "lat": 20.843817,
    "lon": -140.606319,
    "region": "LA"
  },
  {
    "display_name": "Port Brianna \u2013 Reed Common \u2013 Pier",
    "city": "Port Brianna",
    "name": "Reed Common",
    "type": "pier",
    "lat": 57.976554,
    "lon": -104.278303,
    "region": "CAR"
  },
  {
    "display_name": "Lake Diane \u2013 Young Spring \u2013 Boat Ramp",
    "city": "Lake Diane",
    "name": "Young Spring",
    "type": "boat_ramp",
    "lat": 59.410803,
    "lon": -88.036441,
    "region": "FL"
  },
  {
    "display_name": "Holtmouth \u2013 Daniel Lakes \u2013 Campground",
    "city": "Holtmouth",
    "name": "Daniel Lakes",
    "type": "campground",
    "lat": 36.181717,
    "lon": -124.069468,
    "region": "CAR"
  },
  {
    "display_name": "Port Laura \u2013 Hill Vista \u2013 Pier",
    "city": "Port Laura",
    "name": "Hill Vista",
    "type": "pier",
    "lat": 46.774719,
    "lon": -83.405482,
    "region": "BC"
  },
  {
    "display_name": "Wallaceport \u2013 Lucas Dale \u2013 Inlet",
    "city": "Wallaceport",
    "name": "Lucas Dale",
    "type": "inlet",
    "lat": 19.320353,
    "lon": -131.044056,
    "region": "NC"
  },